"parcel_id","num_changes","tot_rent_change","total_days_on_market","initial_rent","days_til_first_change","first_change_amt","days_til_second_change","second_change_amt","days_til_third_change","third_change_amt","days_til_fourth_change","fourth_change_amt","days_til_fifth_change","fifth_change_amt","parcel_number","parcel_county","parcel_address1","parcel_address2","parcel_city","parcel_state","parcel_zipcode","parcel_longitude","parcel_latitude","land_use","acres","sqft_total","bedroom_count","bathroom_count","year_built","last_sale","last_price","total_value"
"128","0",,"5","1150",,,,,,,,,,,"12433719056","Clark","5036 TREASURE HILLS ST","","NORTH LAS VEGAS","NV","89031","-115.154835","36.251780","386","0.0800046","1421","3","2.000","2006","2015-08-31","128000","64311"
"227","0",,"8","1150",,,,,,,,,,,"B-1958-0002-000B","Iron","257 E 3025 N","","CEDAR CITY","UT","84721","-113.057423","37.731860","386","0.0250000","0","0","0.000",,,"0","92950"
"399","2","-100","24","1495","25","-50","6","-50",,,,,,,"02149149","Washoe","4418 MATICH DR","","RENO","NV","89502","-119.749263","39.475540","366","0.0010101","1034","2","3.000","1985","2014-12-15","115000","30333"
"552","0",,"9","1495",,,,,,,,,,,"12427712035","Clark","5804 SIERRA CLIFF ST","","NORTH LAS VEGAS","NV","89031","-115.139655","36.265633","385","0.1100092","2039","2","3.000","2008","2013-05-20","130000","90942"
"631","0",,"16","1490",,,,,,,,,,,"12422811083","Clark","6461 RAVEN HALL ST","","NORTH LAS VEGAS","NV","89084","-115.141522","36.277937","385","0.0600092","1575","4","3.000","2004","2018-03-01","215000","69884"
"661","1","-100","38","1525","30","-100",,,,,,,,,"13836812009","Clark","5128 PADUA WAY","","LAS VEGAS","NV","89107","-115.212570","36.162576","385","0.1300046","1516","3","2.000","1993","2016-09-15","181000","67006"
"863","0",,"36","7500",,,,,,,,,,,"16303416003","Clark","2260 VILLEFORT CT","","LAS VEGAS","NV","89117","-115.253478","36.146635","385","0.4100092","6894","4","6.000","2003","2014-08-11","1225000","482236"
"1470","0",,"32","2795",,,,,,,,,,,"21420204","Washoe","1870 HUNTER CREEK RD","","RENO","NV","89519","-119.863323","39.492541","385","0.1399908","1836","2","2.000","1999","2016-05-06","425000","109898"
"1624","0",,"26","1820",,,,,,,,,,,"0445406","Washington","3091 WINDMILL CIR","","SANTA CLARA","UT","84765","-113.654041","37.142468","385","0.2500000","2081","3","2.000","1994","2006-11-27","0","182325"
"1650","2","-195","39","1795","6","-100","15","-95",,,,,,,"09-105-0016","Cache","346 SUNBURST LN","","RICHMOND","UT","84333","-111.798735","41.933326","385","0.2600092","1192","0","0.000","2004",,"0","220650"
"1824","0",,"20","1400",,,,,,,,,,,"17823611003","Clark","737 SOLITUDE POINT AVE","","HENDERSON","NV","89012","-115.018874","36.022010","386","0.0600092","1371","3","3.000","2000","2013-06-05","0","55866"
"2426","0",,"23","800",,,,,,,,,,,"16220111062","Clark","4200 S VALLEY VIEW BLVD","UNIT 2110","LAS VEGAS","NV","89103","-115.188226","36.113625","366","0.0000000","680","1","1.000","1990","2018-06-18","0","26417"
"2497","0",,"21","1495",,,,,,,,,,,"32103520070000","Salt Lake","7072 W ECHO BLUFF CIR","","HERRIMAN","UT","84096","-112.059603","40.481263","385","0.9800046","2249","6","4.000",,"2016-03-28","0","415415"
"2575","0",,"1","340",,,,,,,,,,,"362310022","Utah","765 E 750 N","APT 10","PROVO","UT","84606","-111.645387","40.244093","366","0.0239899","1040","2","2.000","1983","2008-05-15","0","133650"
"2645","0",,"21","1850",,,,,,,,,,,"17830710105","Clark","2305 W HORIZON RIDGE PKWY","APT 3411","HENDERSON","NV","89052","-115.088510","36.004731","366","0.0000000","1200","2","2.000","2004","2014-06-02","120100","50540"
"2736","1","-50","17","1600","16","-50",,,,,,,,,"12510814015","Clark","6908 BRIER CREEK LN","","LAS VEGAS","NV","89131","-115.245263","36.305953","385","0.1199954","1681","3","2.000","2004","2009-02-17","178000","91416"
"2929","0",,"36","2300",,,,,,,,,,,"132033212007","Douglas","1532 SNAFFLE BIT DR","","GARDNERVILLE","NV","89410","-119.749524","38.949147","385","0.2257346","2117","0","0.000","2015","2015-10-16","352775","112678"
"3051","0",,"35","1325",,,,,,,,,,,"12431114089","Clark","5402 PEONY CT","","NORTH LAS VEGAS","NV","89031","-115.205663","36.258039","385","0.0699954","1703","3","3.000","2001","2010-01-29","0","64958"
"3801","1","-100","7","1900","7","-100",,,,,,,,,"13724112087","Clark","10608 GRAND CYPRESS AVE","","LAS VEGAS","NV","89134","-115.329198","36.202786","385","0.1699954","2176","3","2.000","1997","1997-10-08","227000","92816"
"3896","0",,"5","1550",,,,,,,,,,,"09021211","Washoe","7820 BIG RIVER DR","","RENO","NV","89506","-119.906741","39.633038","385","0.1190083","990","3","2.000","1994","2006-06-28","250000","46309"
"4069","3","-75","97","900","22","-5","75","30","56","-100",,,,,"B-1805-000B-0004","Iron","576 W 1045 N","APT B4","CEDAR CITY","UT","84721","-113.071346","37.696858","366","0.0000000","0","0","0.000",,,"0","95000"
"4630","1","-50","11","1295","4","-50",,,,,,,,,"0042054","Washington","2432 E 750 NORTH CIR","","SAINT GEORGE","UT","84790","-113.532094","37.121011","385","0.2600092","1066","2","1.000","1976","2016-10-06","0","93720"
"4682","1","-50","20","1620","15","-50",,,,,,,,,"0433543","Washington","150 S CRYSTAL LAKES DR","UNIT 45","SAINT GEORGE","UT","84770","-113.628975","37.106155","366","0.1000000","2147","4","3.000","1994","2005-05-11","0","169895"
"4745","0",,"7","850",,,,,,,,,,,"16325210095","Clark","5166 S JONES BLVD","UNIT 207","LAS VEGAS","NV","89118","-115.223660","36.095610","366","0.0528926","668","1","1.000","1989","2019-02-08","116000","23336"
"4916","4","-350","84","2345","72","-120","31","-80","11","-70","5","-80",,,"51648202","Washoe","731 TEMPIUTE CT","","SPARKS","NV","89436","-119.733030","39.579937","385","0.1769054","2012","4","3.000","2015","2015-03-31","295000","113902"
"5905","1","-100","38","1795","27","-100",,,,,,,,,"084550020","Weber","3384 W 4225 S","","WEST HAVEN","UT","84401","-112.059490","41.186890","385","0.1000000","1327","4","3.000","2010","2015-08-21","0","143000"
"6071","0",,"28","1200",,,,,,,,,,,"14006315033","Clark","4331 FERNGROVE WAY","","LAS VEGAS","NV","89115","-115.093070","36.238408","385","0.1399908","1148","3","2.000","1995","2011-11-30","57000","44342"
"6544","2","-100","64","2300","23","-50","14","-50",,,,,,,"415220015","Utah","4342 N FOXTRAIL DR","","LEHI","UT","84043","-111.883692","40.441089","385","0.3339991","2408","4","3.000","2007","2019-04-05","0","206525"
"6940","0",,"2","1400",,,,,,,,,,,"076750056","Weber","6136 S 1450 E","","SOUTH OGDEN","UT","84405","-111.942230","41.151088","385","0.0600092","1436","3","2.500","2006","2018-12-21","0","127050"
"7074","0",,"7","1325",,,,,,,,,,,"384530036","Utah","239 N 680 E","","VINEYARD","UT","84059","-111.736919","40.301335","378","0.0682736","5794","12","10.000","2014","2018-04-16","0","352605"
"7277","1","-50","11","1795","27","-50",,,,,,,,,"14027614060","Clark","6531 LUCKY BOY DR","","LAS VEGAS","NV","89110","-115.030599","36.181604","385","0.2100092","2349","4","2.000","1997","2018-12-28","300000","94934"
"7314","0",,"6","1495",,,,,,,,,,,"12434513030","Clark","220 GRANDFALLS BLUFF AVE","","NORTH LAS VEGAS","NV","89031","-115.142915","36.261225","385","0.1000000","2793","4","3.000","2007","2010-12-30","125000","91422"
"7828","0",,"9","950",,,,,,,,,,,"032070001","Davis","330 N 100 E","APT 1","BOUNTIFUL","UT","84010","-111.878158","40.892949","366","0.0138659","1264","2","1.500","1972","2007-08-09","0","85250"
"7951","0",,"4","1895",,,,,,,,,,,"27164510160000","Salt Lake","2572 W 10950 S","","SOUTH JORDAN","UT","84095","-111.955091","40.552698","385","0.4300046","1662","3","1.000","1987",,"0","239400"
"8316","0",,"31","2195",,,,,,,,,,,"16519303","Washoe","1855 CASCADE STABLE DR","","RENO","NV","89521","-119.732825","39.444202","385","0.1205234","1855","3","2.000","2017","2017-09-11","367500","105896"
"8491","0",,"17","2200",,,,,,,,,,,"13726513029","Clark","1221 SWANBROOKE DR","","LAS VEGAS","NV","89144","-115.341778","36.186362","385","0.1300046","2100","5","3.000","2000","2013-08-13","276100","99107"
"9019","0",,"10","4000",,,,,,,,,,,"17720311010","Clark","9392 JEREMY BLAINE CT","","LAS VEGAS","NV","89139","-115.189048","36.019318","385","0.4100092","4275","4","5.000","2005","2005-07-12","782184","234680"
"9942","0",,"3","1995",,,,,,,,,,,"03611120","Washoe","755 SAGE VIEW CT","","SPARKS","NV","89434","-119.732778","39.545257","385","0.3039945","1792","4","2.000","1976","1988-09-23","107250","44586"
"9954","0",,"4","1375",,,,,,,,,,,"498220805","Utah","42 W SILVER SPRINGS DR","","VINEYARD","UT","84058","-111.754615","40.309189","366","0.0290174","1265","3","2.000","2017","2017-06-30","0","112750"
"10230","1","-10","23","1245","5","-10",,,,,,,,,"03110030","Washoe","2134 CANNONBALL RD","","SPARKS","NV","89431","-119.772327","39.541666","366","0.0010101","1080","2","2.000","1978","2014-12-08","63000","23892"
"10250","1","250","42","1295","42","250",,,,,,,,,"17619610017","Clark","9614 VEGA CARPIO AVE","","LAS VEGAS","NV","89178","-115.302822","36.022435","385","0.0699954","2236","3","3.000","2013","2013-12-03","230770","93864"
"10393","0",,"18","1495",,,,,,,,,,,"17621315006","Clark","9474 BOROUGH PARK ST","","LAS VEGAS","NV","89178","-115.277500","36.015939","386","0.0800046","1404","3","2.000","2006","2014-04-18","160900","69908"
"10590","0",,"18","1750",,,,,,,,,,,"51002112","Washoe","6697 S DREXEL DR","","SPARKS","NV","89436","-119.742340","39.589220","385","0.1390037","1304","3","2.000","1996","1999-11-29","155000","61112"
"10612","0",,"30","3000",,,,,,,,,,,"17715812015","Clark","8870 STAR CANYON WAY","","LAS VEGAS","NV","89123","-115.142616","36.028476","385","0.2899908","2313","4","3.000","1997","2005-03-14","480000","111534"
"10752","0",,"6","1425",,,,,,,,,,,"12426814040","Clark","2308 SHADED FIELD AVE","","NORTH LAS VEGAS","NV","89081","-115.118535","36.264170","385","0.1300046","2316","4","3.000","2012","2012-07-12","162094","89854"
"11026","0",,"30","1425",,,,,,,,,,,"456080004","Utah","128 E 630 N","","VINEYARD","UT","84059","-111.750643","40.308205","366","0.0165289","1860","3","3.000","2017","2017-10-23","0","128205"
"11317","3","-50","188","1450","131","50","85","-75","24","-25",,,,,"33072760150000","Salt Lake","4148 W MINER VIEW LN","","HERRIMAN","UT","84096","-111.989442","40.489346","361","0.0699954","8460","0","0.000",,"2017-04-10","0","491645"
"11318","3","-50","208","1400","204","50","12","-75","24","-25",,,,,"33072760160000","Salt Lake","4138 W MINER VIEW LN","","HERRIMAN","UT","84096","-111.989285","40.489376","369","0.0300046","3549","6","6.000",,"2017-04-10","0","177705"
"11319","0",,"116","1400",,,,,,,,,,,"33072760170000","Salt Lake","4128 W MINER VIEW LN","","HERRIMAN","UT","84096","-111.989079","40.489433","361","0.0699954","8460","0","0.000",,"2017-04-10","0","491645"
"11382","0",,"2","1550",,,,,,,,,,,"01985227","Lyon","253 GORDON LN","","DAYTON","NV","89403","-119.534971","39.303786","385","0.3205693","1440","3","2.000","1999","2004-12-01","219000","68833"
"11558","0",,"9","3500",,,,,,,,,,,"01751016","Washoe","2495 STAR POINTE DR","","RENO","NV","89521","-119.722826","39.372390","385","0.5492424","2557","4","3.000","2016","2016-10-04","555000","172732"
"11968","0",,"23","1495",,,,,,,,,,,"17620112001","Clark","9310 WINEBROOK AVE","","LAS VEGAS","NV","89148","-115.295493","36.025128","385","0.0800046","2206","4","3.000","2006","2016-08-03","245000","91281"
"12007","0",,"36","2795",,,,,,,,,,,"14118304","Washoe","2240 RENZO WAY","","RENO","NV","89521","-119.725724","39.439187","385","0.1779844","2294","3","3.000","2014","2018-12-28","517000","114844"
"12099","2","-200","29","1300","6","-100","17","-100",,,,,,,"13822212051","Clark","2124 CALVILLE ST","UNIT 102","LAS VEGAS","NV","89128","-115.258822","36.199942","366","0.0459137","1014","2","2.000","1999","2015-05-18","85000","37926"
"12100","1","-100","24","1300","12","-100",,,,,,,,,"17830810040","Clark","830 CARNEGIE ST","APT 524","HENDERSON","NV","89052","-115.092199","36.000802","366","0.0000000","1033","2","2.000","2003","2011-08-22","65000","44669"
"12108","0",,"2","1600",,,,,,,,,,,"17727312053","Clark","10138 ROCKY TREE ST","","LAS VEGAS","NV","89183","-115.150920","36.005732","386","0.0500000","1284","2","3.000","2003","2013-05-03","95000","54303"
"12110","1","100","35","1700","130","100",,,,,,,,,"17711611088","Clark","2233 BUFFALO RUN AVE","","LAS VEGAS","NV","89123","-115.120855","36.051643","385","0.0500000","1786","3","3.000","2000","2013-08-12","170000","71658"
"12114","0",,"8","1300",,,,,,,,,,,"17830810018","Clark","830 CARNEGIE ST","APT 312","HENDERSON","NV","89052","-115.091341","36.000823","366","0.0000000","1033","2","2.000","2003","2016-07-22","121000","44669"
"12115","0",,"19","1450",,,,,,,,,,,"17830810106","Clark","830 CARNEGIE ST","APT 1412","HENDERSON","NV","89052","-115.091594","36.001275","366","0.0000000","1253","2","2.000","2003","2012-05-31","90000","49563"
"12120","3","200","64","1400","8","300","32","-50","5","-50",,,,,"17727312100","Clark","10201 ROLLING TREE ST","","LAS VEGAS","NV","89183","-115.150761","36.004647","386","0.0500000","1510","3","3.000","2003","2013-07-11","125000","58892"
"12123","0",,"9","1600",,,,,,,,,,,"17612412006","Clark","5924 W SANTOLI AVE","","LAS VEGAS","NV","89139","-115.222917","36.044139","385","0.0500000","1187","2","3.000","2004","2013-05-29","0","60874"
"12130","1","-50","19","1700","29","-50",,,,,,,,,"17712621059","Clark","328 MALI HEIGHTS CT","","HENDERSON","NV","89074","-115.107421","36.050722","386","0.0199954","1496","3","3.000","2006","2013-04-19","102000","66589"
"12131","0",,"70","1500",,,,,,,,,,,"17830810105","Clark","830 CARNEGIE ST","APT 1411","HENDERSON","NV","89052","-115.091594","36.001275","366","0.0000000","1253","2","2.000","2003","2011-04-14","80000","49563"
"12134","3","250","64","1250","33","50","57","100","23","100",,,,,"17830810108","Clark","830 CARNEGIE ST","APT 1414","HENDERSON","NV","89052","-115.091594","36.001275","366","0.0000000","1253","2","2.000","2003","2012-03-28","84200","49563"
"12135","0",,"17","1400",,,,,,,,,,,"17735610051","Clark","950 SEVEN HILLS DR","UNIT 513","HENDERSON","NV","89052","-115.120322","35.992564","366","0.0000000","1159","3","2.000","2001","2013-03-28","97000","42506"
"12138","0",,"22","1500",,,,,,,,,,,"17830810071","Clark","830 CARNEGIE ST","APT 923","HENDERSON","NV","89052","-115.092183","36.001984","366","0.0000000","1253","2","2.000","2003","2012-10-31","92000","49563"
"12144","0",,"77","1500",,,,,,,,,,,"17830810041","Clark","830 CARNEGIE ST","APT 611","HENDERSON","NV","89052","-115.092180","36.001174","366","0.0000000","1253","2","2.000","2003","2010-01-22","95000","49563"
"12148","0",,"19","1400",,,,,,,,,,,"17830810055","Clark","830 CARNEGIE ST","APT 723","HENDERSON","NV","89052","-115.092166","36.001444","366","0.0000000","1033","2","2.000","2003","2011-06-22","65000","44669"
"12549","2","-50","56","1400","42","-25","7","-25",,,,,,,"13818213174","Clark","10020 HEYFIELD DR","","LAS VEGAS","NV","89134","-115.314875","36.211953","386","0.0699954","1333","2","2.000","1994","2003-12-08","219900","56810"
"12808","0",,"8","1220",,,,,,,,,,,"0463623","Washington","252 N 400 W","APT 5","SAINT GEORGE","UT","84770","-113.590821","37.112380","366","0.0399908","1182","3","2.000","1993","2010-04-21","0","96415"
"12810","0",,"2","1395",,,,,,,,,,,"01159212","Washoe","255 N SIERRA ST","UNIT 521","RENO","NV","89501","-119.815438","39.527765","366","0.0196281","855","1","1.000","1978","2016-11-10","160000","28000"
"12988","0",,"6","1200",,,,,,,,,,,"0674534","Washington","232 E 250 SOUTH ST","","WASHINGTON","UT","84780","-113.505998","37.126857","385","0.1699954","1521","5","3.000","2004","2013-02-12","0","194425"
"13175","2","-100","33","1600","16","-50","19","-50",,,,,,,"17636215066","Clark","5987 ALLANCHE AVE","","LAS VEGAS","NV","89141","-115.223937","35.993505","385","0.0899908","1837","3","3.000","2004","2016-01-06","220000","83011"
"13355","1","-45","47","1895","43","-45",,,,,,,,,"651340267","Utah","2327 N 2400 W","","LEHI","UT","84043","-111.888856","40.416536","385","0.1350092","1367","3","2.000","2006","2007-01-25","0","180565"
"13710","0",,"20","1369",,,,,,,,,,,"16272780130000","Salt Lake","2646 E 2980 S","","SALT LAKE CITY","UT","84109","-111.816276","40.706031","385","0.2000000","1140","2","1.000","1948",,"0","158015"
"15159","0",,"3","2220",,,,,,,,,,,"0535255","Washington","1763 BOULDER MOUNTAIN RD","","SAINT GEORGE","UT","84790","-113.546935","37.082073","385","0.2300046","3260","4","4.000","1999","2010-05-17","0","276045"
"15392","0",,"7","700",,,,,,,,,,,"130630047","Davis","2339 N 300 W","","SUNSET","UT","84015","-112.032197","41.147834","369","0.2000000","1100","4","2.000","1958","2007-03-27","0","103400"
"15483","1","-20","9","1595","17","-20",,,,,,,,,"17810311127","Clark","256 CORVALLIS CT","","HENDERSON","NV","89074","-115.043805","36.047078","385","0.1600092","1422","3","2.000","1997","2014-07-07","195000","70515"
"15620","0",,"2","1625",,,,,,,,,,,"17819110208","Clark","2407 TOTTINGHAM RD","","HENDERSON","NV","89074","-115.093349","36.025676","385","0.1000000","1517","3","3.000","1994","2019-03-26","290000","60841"
"15920","0",,"14","750",,,,,,,,,,,"1-40-35","Sevier","180 E 300 N","","RICHFIELD","UT","84701",,,"385","0.2100092","1275","0","2.000","1962",,"0","60240"
"16363","0",,"4","1750",,,,,,,,,,,"12425812026","Clark","5705 EARTHSONG CT","","NORTH LAS VEGAS","NV","89081","-115.104952","36.263698","385","0.1899908","2942","4","3.000","2005","2014-06-30","260000","109345"
"16488","2","-300","85","2295","55","-200","16","-100",,,,,,,"416140406","Utah","1383 E 550 N","","LEHI","UT","84043","-111.827166","40.395203","385","0.2149908","2045","3","4.000","2007","2010-07-28","0","247390"
"16605","2","39","15","760","140","99","30","-60",,,,,,,"22174810220000","Salt Lake","6163 S 1300 E W","","SALT LAKE CITY","UT","84121","-111.853948","40.639044","366","0.0100092","615","1","1.000","1984","2007-01-31","0","64790"
"16669","0",,"1","1899",,,,,,,,,,,"16508410","Washoe","1905 CAVE ROCK RD","","RENO","NV","89521","-119.733210","39.442218","385","0.0732323","1554","3","3.000","2008","2015-12-23","265000","75481"
"16670","0",,"7","2100",,,,,,,,,,,"16104204","Washoe","9640 GLEN RIDGE DR","","RENO","NV","89521","-119.737708","39.441264","385","0.1955464","2229","3","2.000","2002","2016-02-03","0","95894"
"17134","0",,"2","1795",,,,,,,,,,,"12330611020","Clark","4028 GASTER AVE","","NORTH LAS VEGAS","NV","89081","-115.085766","36.270769","385","0.1399908","3000","5","4.000","2006","2018-06-15","325000","104571"
"17201","3","-50","165","1850","37","-55","20","-45","16","50",,,,,"17717510019","Clark","8255 LAS VEGAS BLVD S","UNIT 217","LAS VEGAS","NV","89123","-115.176107","36.039857","366","0.0000000","1253","2","2.000","2008","2018-07-05","299900","101320"
"17515","0",,"4","1300",,,,,,,,,,,"16121510087","Clark","4194 ORANGE MIST WAY","","LAS VEGAS","NV","89122","-115.053738","36.113147","385","0.1500000","1348","4","2.000","1998","2011-01-10","73200","56865"
"17568","0",,"3","900",,,,,,,,,,,"13919311175","Clark","1810 N DECATUR BLVD","UNIT 203","LAS VEGAS","NV","89108","-115.205659","36.192572","366","0.0414141","945","2","2.000","1985","2017-06-16","75000","23497"
"17906","1","-50","28","1500","25","-50",,,,,,,,,"12508311003","Clark","8936 SPINNING WHEEL AVE","","LAS VEGAS","NV","89143","-115.290960","36.313664","385","0.1199954","1786","4","3.000","1999","2010-12-01","127500","72915"
"17993","0",,"2","1200",,,,,,,,,,,"13907414033","Clark","3335 BAY HORSE CT","","NORTH LAS VEGAS","NV","89032","-115.200184","36.220344","385","0.1300046","1584","3","2.000","2000","2018-06-28","227000","69100"
"18291","0",,"26","1510",,,,,,,,,,,"651620008","Utah","1946 N HOLLOW CT","","LEHI","UT","84043","-111.862589","40.411496","377","0.0219927","1315","3","3.000","2007","2019-03-06","0","110000"
"18624","1","48","29","1150","21","48",,,,,,,,,"12520215242","Clark","6955 N DURANGO DR","UNIT 1102","LAS VEGAS","NV","89149","-115.289153","36.286767","366","0.0000000","1028","2","2.000","2004","2005-11-22","188000","42098"
"19099","0",,"23","800",,,,,,,,,,,"05-0016-0030","Beaver","81 S 400 W","","MILFORD","UT","84751",,,"373","0.1500000","864","0","0.000","1905",,"0","39206"
"19586","0",,"10","1425",,,,,,,,,,,"22313030320000","Salt Lake","74 E RESACA DR","UNIT B8","SANDY","UT","84070","-111.888820","40.601552","366","0.0100092","1185","3","2.000","2007",,"0","110770"
"20077","1","-25","9","1291","25","-25",,,,,,,,,"0726219","Washington","3155 S HIDDEN VALLEY DR","# 19","SAINT GEORGE","UT","84790","-113.568793","37.053661","366","0.0199954","1430","3","2.500","2004","2004-09-20","0","100430"
"20230","0",,"3","1380",,,,,,,,,,,"16322218002","Clark","7512 MYCROFT CT","","LAS VEGAS","NV","89147","-115.254817","36.108386","385","0.1100092","1293","3","2.000","1994","2010-03-25","0","58854"
"20374","0",,"21","1000",,,,,,,,,,,"13816120277","Clark","3151 SOARING GULLS DR","UNIT 2029","LAS VEGAS","NV","89128","-115.275856","36.218096","366","0.0000000","1074","2","2.000","1989","2015-02-17","60000","29970"
"20428","0",,"5","700",,,,,,,,,,,"17801710031","Clark","1603 JUSTIN CT","","HENDERSON","NV","89011","-114.998613","36.062803","366","0.0644858","975","2","1.000","1984","2018-11-06","54920","22938"
"20779","0",,"5","1595",,,,,,,,,,,"16327711018","Clark","7216 WINDING CREEK DR","","LAS VEGAS","NV","89113","-115.249235","36.090048","385","0.1100092","2251","4","3.000","1997","2010-04-16","184200","93430"
"20850","0",,"72","1600",,,,,,,,,,,"17726212040","Clark","1698 ADOBE FROST CT","","LAS VEGAS","NV","89183","-115.129152","36.007609","385","0.0899908","1741","4","3.000","2000","1999-08-23","138500","86119"
"21038","0",,"10","1850",,,,,,,,,,,"02353106","Washoe","2017 TREMONT LN","","RENO","NV","89509","-119.808719","39.478689","366","0.0010101","1384","2","2.000","1978","2012-12-28","0","46170"
"21068","0",,"3","1485",,,,,,,,,,,"17629110028","Clark","9330 NETHERFIELD AVE","","LAS VEGAS","NV","89178","-115.296555","36.011915","385","0.0600092","1715","4","3.000","2006","2008-12-17","205000","81405"
"21140","0",,"28","1550",,,,,,,,,,,"17608216034","Clark","156 DUCK HOLLOW AVE","","LAS VEGAS","NV","89148","-115.292861","36.048861","385","0.0899908","2063","4","3.000","2002","2002-05-22","190990","89722"
"21246","1","150","40","1675","6","150",,,,,,,,,"12407311098","Clark","4328 DESERT HOME AVE","","NORTH LAS VEGAS","NV","89085","-115.199478","36.312280","385","0.1100092","2495","3","3.000","2006","2013-10-04","225000","103531"
"21260","1","-50","94","1250","36","-50",,,,,,,,,"001740047","Elko","1102 LAMOILLE HWY","","ELKO","NV","89801","-115.744995","40.829253","165","0.1881772","1261","0","0.000","1989","2018-03-05","150000","42933"
"21385","0",,"4","1395",,,,,,,,,,,"13904817039","Clark","1212 MENSA AVE","","NORTH LAS VEGAS","NV","89032","-115.159293","36.232681","385","0.1500000","1484","3","2.000","2012","2012-09-25","131745","76377"
"21414","0",,"6","2200",,,,,,,,,,,"17614113188","Clark","8172 DEERFIELD RANCH CT","","LAS VEGAS","NV","89139","-115.237419","36.040299","385","0.1399908","3313","4","3.000","2009","2009-12-22","356450","117705"
"21585","0",,"7","1420",,,,,,,,,,,"0028418","Washington","311 N 100 E","","SAINT GEORGE","UT","84770","-113.581414","37.113603","385","0.2199954","2556","3","2.000","1974",,"0","144540"
"21690","0",,"1","2350",,,,,,,,,,,"19005314005","Clark","1405 ANTIENNE DR","","HENDERSON","NV","89052","-115.075335","35.974769","385","0.2100092","2561","4","3.000","2003","2003-06-24","338890","135540"
"22182","0",,"35","1766",,,,,,,,,,,"0208424","Washington","3008 BLOOMINGTON HILLS DR","","SAINT GEORGE","UT","84790","-113.560117","37.056309","385","0.3399908","1680","4","2.500","1978",,"0","149820"
"22475","0",,"39","2400",,,,,,,,,,,"19104114014","Clark","36 CANOPUS RIDGE WAY","","LAS VEGAS","NV","89183","-115.171620","35.984379","385","0.1199954","2782","5","3.000","2016","2018-03-15","400000","131568"
"22700","1","-200","47","1520","35","-200",,,,,,,,,"0314958","Washington","978 N 2075 EAST CIR","","SAINT GEORGE","UT","84770","-113.539060","37.124747","385","0.2300046","1616","2","2.000","1984",,"0","125840"
"24915","2","-155","39","1850","15","-100","16","-55",,,,,,,"17731711100","Clark","10978 LADYBURN CT","","LAS VEGAS","NV","89141","-115.195016","35.989875","385","0.1100092","2162","4","3.000","2006","2008-10-16","315000","94169"
"25051","0",,"40","2100",,,,,,,,,,,"16164260250000","Salt Lake","1809 S 1800 E","","SALT LAKE CITY","UT","84108","-111.839130","40.731288","369","0.1600092","1692","4","2.000","1953","2017-02-16","0","221375"
"25130","1","-70","52","1095","45","-70",,,,,,,,,"14023217144","Clark","6800 E LAKE MEAD BLVD","UNIT 2072","LAS VEGAS","NV","89156","-115.024648","36.196690","366","0.0454545","1084","3","2.000","1990","2019-04-24","106800","28229"
"25178","2","-225","172","1150","62","-150","64","-75",,,,,,,"26421612051","Clark","1904 LAS PALMAS LN","APT 102","LAUGHLIN","NV","89029","-114.623903","35.146555","366","0.0305326","1023","2","2.000","1987","1988-05-04","87950","23348"
"25313","0",,"12","1895",,,,,,,,,,,"13819416027","Clark","1829 LYELL CANYON LN","","LAS VEGAS","NV","89134","-115.312699","36.192276","385","0.1199954","1548","3","2.000","1996","2019-05-10","0","74546"
"25337","0",,"21","1650",,,,,,,,,,,"02093309","Lyon","1659 ROUND UP RD","","FERNLEY","NV","89408","-119.213243","39.594268","385","0.1379706","1355","3","2.000","2003","2017-08-23","199000","74149"
"25422","0",,"8","1400",,,,,,,,,,,"13809210022","Clark","8108 AHEY RD","","LAS VEGAS","NV","89129","-115.270825","36.228049","385","0.0899908","1296","3","2.000","1995","1995-01-11","103500","56186"
"25464","0",,"3","1680",,,,,,,,,,,"12613116115","Clark","7920 BARTLETT PEAK ST","","LAS VEGAS","NV","89166","-115.328354","36.304831","385","0.0800046","1607","3","3.000","2013","2018-06-20","270500","90888"
"26009","0",,"38","1700",,,,,,,,,,,"19113811142","Clark","2318 SAND LILY ST","","HENDERSON","NV","89052","-115.106751","35.941869","385","0.1300046","1496","2","2.000","2004","2016-05-10","255000","84327"
"26010","0",,"9","1595",,,,,,,,,,,"19113514002","Clark","1944 SIOUX CITY CT","","HENDERSON","NV","89052","-115.105221","35.955096","385","0.1899908","1482","2","2.000","2002","2018-02-16","306000","83639"
"26045","0",,"8","1300",,,,,,,,,,,"17921813001","Clark","740 SPOTTED EAGLE ST","","HENDERSON","NV","89015","-114.948723","36.014903","386","0.0600092","1370","3","3.000","2004","2019-03-14","222000","50957"
"26989","0",,"12","2100",,,,,,,,,,,"14094223","Washoe","2045 WHITECLIFF DR","","RENO","NV","89521","-119.728359","39.411907","385","0.1764692","1528","3","2.000","2014","2015-11-16","325000","94314"
"27658","4","-300","49","1650","20","-100","5","-55","2","-45","10","-100",,,"12528710068","Clark","7844 QUILL GORDON AVE","","LAS VEGAS","NV","89149","-115.266427","36.267259","385","0.0899908","1484","3","2.000","1998","2003-05-21","158000","62837"
"27845","1","50","80","1550","77","50",,,,,,,,,"16216810136","Clark","210 E FLAMINGO RD","UNIT 403","LAS VEGAS","NV","89169","-115.163295","36.116900","366","0.0000000","727","1","1.000","1992","2014-05-30","149900","38665"
"28265","3","-155","23","1750","16","-55","2","-70","2","-30",,,,,"12425615089","Clark","3229 VISIONARY BAY AVE","","NORTH LAS VEGAS","NV","89081","-115.102951","36.271430","385","0.1300046","2784","4","3.000","2005","2011-11-07","126500","102192"
"28615","0",,"9","1100",,,,,,,,,,,"12430310025","Clark","5855 VALLEY DR","UNIT 1036","NORTH LAS VEGAS","NV","89031","-115.198687","36.266790","366","0.0000000","1136","2","2.000","2004","2002-12-27","122900","52880"
"29589","0",,"18","1595",,,,,,,,,,,"02819512","Washoe","525 E GAULT WAY","","SPARKS","NV","89431","-119.735758","39.554178","385","0.1579890","1264","3","2.000","1981","2003-11-26","185000","42718"
"29681","0",,"9","0",,,,,,,,,,,"14020410034","Clark","4651 SOLAR ECLIPSE DR","","LAS VEGAS","NV","89115","-115.071957","36.191554","385","0.0899908","1162","3","2.000","1994","2011-11-17","57000","47690"
"29694","0",,"4","1800",,,,,,,,,,,"16226315011","Clark","5464 ESCONDIDO ST","","LAS VEGAS","NV","89119","-115.134207","36.090887","385","0.2699954","1728","4","2.000","1971","2018-06-12","299900","51911"
"29804","0",,"29","1950",,,,,,,,,,,"13828215015","Clark","8329 MAPLESTAR RD","","LAS VEGAS","NV","89128","-115.276745","36.184246","385","0.1100092","1870","4","2.000","1994","2014-05-14","225000","80034"
"29805","0",,"4","1350",,,,,,,,,,,"17614512003","Clark","8231 GOLDEN FLOWERS ST","","LAS VEGAS","NV","89139","-115.227808","36.039636","385","0.0399908","1362","2","3.000","2005","2012-09-21","122000","65119"
"29987","1","-100","95","2200","91","-100",,,,,,,,,"19101315027","Clark","2973 FORMIA DR","","HENDERSON","NV","89052","-115.116134","35.973773","385","0.1399908","2395","3","2.000","1999","2017-10-12","365000","104844"
"30043","0",,"23","1245",,,,,,,,,,,"12521213024","Clark","6868 SKY POINTE DR","UNIT 2012","LAS VEGAS","NV","89131","-115.273034","36.285737","366","0.0000000","1454","3","2.000","2006","2006-04-27","232965","59317"
"30409","0",,"5","1450",,,,,,,,,,,"112870007","Weber","1479 N FOWLER AVE","","OGDEN","UT","84404","-111.954990","41.284468","385","0.1899908","1124","3","2.500","2003","2013-09-04","0","125950"
"30514","0",,"20","1400",,,,,,,,,,,"12518113048","Clark","9924 MARKHORN CT","","LAS VEGAS","NV","89149","-115.311387","36.304820","385","0.0500000","1560","2","3.000","2007","2019-05-03","261000","77176"
"30823","0",,"46","1000",,,,,,,,,,,"16116512019","Clark","3400 CABANA DR","UNIT 1071","LAS VEGAS","NV","89122","-115.053936","36.128877","366","0.0000230","1053","2","2.000","2002","2004-12-13","160500","34477"
"31619","0",,"4","1195",,,,,,,,,,,"12534810095","Clark","4830 BLACK BEAR RD","UNIT 201","LAS VEGAS","NV","89149","-115.249997","36.249307","366","0.0597107","1186","2","2.000","1995","2019-08-08","180000","42931"
"31681","0",,"8","1400",,,,,,,,,,,"08361770180000","Salt Lake","358 W 400 N","","SALT LAKE CITY","UT","84103","-111.901653","40.778401","385","0.1600092","980","2","1.000","1886","1999-02-26","0","114785"
"31733","0",,"1","1950",,,,,,,,,,,"13725117053","Clark","10617 ENGLEWOOD CLIFFS AVE","","LAS VEGAS","NV","89144","-115.327160","36.186947","385","0.1199954","2475","4","3.000","1999","2004-04-14","0","97947"
"31744","0",,"17","1450",,,,,,,,,,,"17726417046","Clark","1629 SUMMER BLUSH AVE","","LAS VEGAS","NV","89183","-115.129684","36.001365","385","0.0399908","1299","2","3.000","2007","2009-05-22","115000","68292"
"31888","0",,"27","1750",,,,,,,,,,,"B-1395-0003-0007","Iron","2168 N SUMACK CIR","","CEDAR CITY","UT","84721","-113.044096","37.716840","181","0.2500000","0","0","0.000",,,"0","115405"
"31992","3","-200","22","2050","15","-100","13","-50","1","-50",,,,,"350850001","Utah","84 W 1700 S","","OREM","UT","84058","-111.697069","40.266374","385","0.2399908","1425","3","3.000","1984","2019-10-28","0","162415"
"32166","0",,"9","1495",,,,,,,,,,,"16321217029","Clark","8530 TITANIA CT","","LAS VEGAS","NV","89147","-115.277502","36.109942","385","0.0800046","2017","4","3.000","2000","2000-08-21","150500","79273"
"32674","0",,"5","1300",,,,,,,,,,,"13809324005","Clark","3552 WARMBREEZE WAY","","LAS VEGAS","NV","89129","-115.274486","36.225342","385","0.1600092","1476","3","2.000","2003","2013-04-10","161000","68504"
"33002","0",,"7","1250",,,,,,,,,,,"12429213056","Clark","3516 SANDY BROWN AVE","","NORTH LAS VEGAS","NV","89031","-115.187187","36.270209","385","0.1600092","1464","3","2.000","2004","2004-10-13","194990","73560"
"33072","0",,"15","3000",,,,,,,,,,,"352950004","Utah","644 E 21OO N","","PROVO","UT","84604","-111.647310","40.261942","385","0.3500000","2714","4","5.000","1997","2016-09-30","0","323565"
"33081","0",,"1","1050",,,,,,,,,,,"12430310137","Clark","5855 VALLEY DR","UNIT 1078","NORTH LAS VEGAS","NV","89031","-115.198312","36.265709","366","0.0000000","1136","2","2.000","2004","2003-08-04","125400","52880"
"33384","0",,"14","1050",,,,,,,,,,,"16326214312","Clark","5250 S RAINBOW BLVD","UNIT 2156","LAS VEGAS","NV","89118","-115.239898","36.094742","366","0.0000000","744","1","1.000","1997","2017-05-01","139900","34834"
"33857","0",,"1","1149",,,,,,,,,,,"12419312176","Clark","6680 CAPORETTO LN","UNIT 202","NORTH LAS VEGAS","NV","89084","-115.204025","36.281318","366","0.0000000","1255","3","2.000","2006","2014-04-14","110000","53076"
"34094","0",,"10","950",,,,,,,,,,,"0362635","Washington","123 PARTRIDGE DR","","HURRICANE","UT","84737","-113.392031","37.162674","401","0.0500000","0","0","0.000",,"2012-03-28","0","8250"
"34369","0",,"4","1300",,,,,,,,,,,"13809210069","Clark","3768 BOSSA NOVA DR","","LAS VEGAS","NV","89129","-115.273159","36.229522","385","0.0899908","1768","5","3.000","1995","2017-01-09","205000","63832"
"34586","1","-200","103","2400","83","-200",,,,,,,,,"13934312318","Clark","353 E BONNEVILLE AVE","UNIT 1102","LAS VEGAS","NV","89101","-115.146545","36.163631","366","0.0000000","1194","2","2.000","2008","2018-11-30","399900","121231"
"35163","0",,"17","1600",,,,,,,,,,,"0793545","Washington","336 W 270 S","","IVINS","UT","84738","-113.687023","37.163660","366","0.0699954","1528","3","2.000","2007","2018-10-03","0","265800"
"35460","0",,"5","1395",,,,,,,,,,,"13818611063","Clark","9405 SLATE DR","","LAS VEGAS","NV","89134","-115.299688","36.212642","385","0.1800046","1105","2","2.000","1991","2018-03-05","267000","58476"
"35643","0",,"39","2245",,,,,,,,,,,"17723412002","Clark","1620 SILVER KNOLL AVE","","LAS VEGAS","NV","89123","-115.130218","36.016803","385","0.1399908","2255","5","3.000","1998","2015-08-03","288000","92463"
"36061","0",,"32","1450",,,,,,,,,,,"12534710050","Clark","5028 SAINT ANNES DR","","LAS VEGAS","NV","89149","-115.248871","36.252756","385","0.1199954","1483","3","2.000","1993","2007-07-02","290000","68708"
"36096","1","40","92","679","93","40",,,,,,,,,"00315020","Washoe","1617 N VIRGINIA ST","","RENO","NV","89503","-119.820664","39.545044","361","2.6000000","42996","128","128.000","1980","2017-11-03","10000000","3242411"
"36599","2","-200","78","1895","6","-145","80","-55",,,,,,,"497120208","Utah","867 W 2700 N","","LEHI","UT","84043","-111.863317","40.421691","385","0.0828283","1535","3","5.000","2015","2015-10-01","0","165165"
"36943","0",,"5","1650",,,,,,,,,,,"01323203","Washoe","450 CLAREMONT ST","","RENO","NV","89502","-119.801093","39.514549","385","0.1549587","1860","5","2.000","1953","2019-08-30","450000","43097"
"36967","0",,"21","1650",,,,,,,,,,,"16319416007","Clark","4742 SAN MARCELLO ST","","LAS VEGAS","NV","89147","-115.313165","36.103228","385","0.0600092","1637","4","3.000","2014","2016-02-16","248000","86436"
"37014","1","75","9","1091","43","75",,,,,,,,,"0693328","Washington","790 N 2720 E","UNIT 29","SAINT GEORGE","UT","84790","-113.526137","37.122047","366","0.0199954","1355","3","2.500","2003","2004-02-23","0","100155"
"37016","0",,"7","1116",,,,,,,,,,,"0693393","Washington","790 N 2720 E","UNIT 36","SAINT GEORGE","UT","84790","-113.525900","37.121740","366","0.0199954","1355","3","2.500","2003","2004-03-15","0","100155"
"37167","0",,"4","1975",,,,,,,,,,,"13828216009","Clark","8332 MONICO VALLEY CT","","LAS VEGAS","NV","89128","-115.276625","36.182409","385","0.1199954","2080","4","3.000","1994","2018-06-28","260000","78933"
"37172","0",,"2","2500",,,,,,,,,,,"17723714018","Clark","2196 MADICA AVE","","LAS VEGAS","NV","89123","-115.121692","36.018210","385","0.1199954","1922","4","3.000","1998","2019-03-27","330000","92120"
"37191","0",,"1","3300",,,,,,,,,,,"FIDG 8","Summit","1352 FIDDICH GLEN LN","","PARK CITY","UT","84098","-111.536951","40.726786","385","0.0399908","1650","0","0.000","2016","2017-01-31","0","275000"
"38167","1","25","29","1750","9","25",,,,,,,,,"17731114040","Clark","4449 VERDICCIO AVE","","LAS VEGAS","NV","89141","-115.199856","35.998028","385","0.1199954","1899","4","2.000","2001","2018-05-04","149500","85416"
"38236","1","-50","72","1470","43","-50",,,,,,,,,"0958904","Washington","2535 BELLA VISTA DR","","SANTA CLARA","UT","84765","-113.668511","37.151424","366","0.0300046","1690","3","2.500","2016",,"0","114180"
"38378","1","25","7","1250","5","25",,,,,,,,,"16216810661","Clark","270 E FLAMINGO RD","UNIT 432","LAS VEGAS","NV","89169","-115.160990","36.115413","366","0.0000000","796","1","1.000","1992","2011-11-03","93000","41999"
"38426","0",,"6","1450",,,,,,,,,,,"16216810500","Clark","260 E FLAMINGO RD","UNIT 321","LAS VEGAS","NV","89169","-115.161091","36.116430","366","0.0000000","1035","2","2.000","1992","2014-04-07","101211","49538"
"38427","0",,"30","1750",,,,,,,,,,,"16216810127","Clark","210 E FLAMINGO RD","UNIT 417","LAS VEGAS","NV","89169","-115.163193","36.117119","366","0.0000000","1035","2","2.000","1992","2014-04-07","103260","50225"
"38553","0",,"28","2295",,,,,,,,,,,"16330116001","Clark","4937 CALABASH TREE CT","","LAS VEGAS","NV","89148","-115.313483","36.099491","385","0.1199954","2828","5","3.000","2013","2013-06-21","320643","133484"
"38783","1","-25","33","1675","52","-25",,,,,,,,,"02816231","Washoe","220 LENWOOD DR","","SPARKS","NV","89431","-119.745446","39.557004","385","0.1429982","1854","3","3.000","1971",,"0","37662"
"39097","1","-100","62","2395","15","-100",,,,,,,,,"40206002","Washoe","2295 BELLAGIO CT","","SPARKS","NV","89434","-119.701997","39.551641","385","0.1440083","2520","4","3.000","2001","2018-09-11","400000","103840"
"39126","0",,"7","1600",,,,,,,,,,,"17734413030","Clark","1164 CAMPASSOLE CT","","HENDERSON","NV","89052","-115.147921","35.985706","386","0.0600092","1476","3","3.000","2013","2013-03-14","173712","71166"
"39339","1","-100","12","2700","6","-100",,,,,,,,,"17821218006","Clark","1754 QUIVER POINT AVE","","HENDERSON","NV","89012","-115.057269","36.021986","385","0.1500000","2785","5","3.000","2002","2018-07-02","455000","120481"
"39486","0",,"3","1350",,,,,,,,,,,"17618516079","Clark","588 PRIMROSE HILL AVE","","LAS VEGAS","NV","89178","-115.301883","36.039660","385","0.0500000","1297","2","2.000","2007","2013-12-31","153000","63512"
"39536","0",,"5","3000",,,,,,,,,,,"12548228","Washoe","599 ROCKROSE CT","","INCLINE VILLAGE","NV","89451","-119.975492","39.256473","385","0.2199954","1626","3","4.000","1989","2017-10-18","570000","156024"
"41493","1","-205","56","2200","36","-205",,,,,,,,,"13725412025","Clark","408 MADISON TAYLOR PL","","LAS VEGAS","NV","89144","-115.324419","36.177639","385","0.1100092","2430","5","3.000","1999","1999-05-26","176500","92080"
"41522","0",,"20","1395",,,,,,,,,,,"0726730","Washington","3155 S HIDDEN VALLEY DR","UNIT 136","SAINT GEORGE","UT","84790","-113.566796","37.054885","366","0.0199954","1430","3","2.500","2004","2008-10-02","0","178600"
"41546","1","-100","28","1950","13","-100",,,,,,,,,"19114812169","Clark","3113 VIA DA VINCI","","HENDERSON","NV","89044","-115.124921","35.944747","385","0.0699954","2040","3","3.000","2015","2017-09-20","300000","98064"
"41668","0",,"11","1350",,,,,,,,,,,"16202712077","Clark","1701 CANOSA AVE","","LAS VEGAS","NV","89104","-115.127550","36.149739","385","0.1600092","1751","4","2.000","1954","2014-02-18","120000","37070"
"41728","0",,"23","1350",,,,,,,,,,,"13823819053","Clark","6208 OLD TRAIL RD","","LAS VEGAS","NV","89108","-115.228400","36.189207","385","0.1500000","1522","4","2.000","1977","2011-03-07","105000","41937"
"42088","0",,"24","1275",,,,,,,,,,,"13916814025","Clark","2430 COUNTRY ORCHARD ST","","NORTH LAS VEGAS","NV","89030","-115.154238","36.204220","385","0.1399908","1667","3","3.000","2001","2010-09-28","70000","73143"
"42336","0",,"13","1900",,,,,,,,,,,"17808219031","Clark","2148 SUN SWEPT WAY","","HENDERSON","NV","89074","-115.081027","36.050225","385","0.1100092","2222","3","3.000","1992","2018-04-03","292888","72910"
"42348","0",,"10","1695",,,,,,,,,,,"16414712001","Clark","3806 CINNAMON CREST PL","","LAS VEGAS","NV","89135","-115.334149","36.120087","385","0.1500000","1700","2","2.000","2003","2019-01-29","0","91422"
"42647","0",,"4","1400",,,,,,,,,,,"16216810541","Clark","260 E FLAMINGO RD","UNIT 406","LAS VEGAS","NV","89169","-115.161156","36.116119","366","0.0000000","796","1","1.000","1992","2013-07-22","150000","41999"
"43369","0",,"8","2500",,,,,,,,,,,"14135216","Washoe","10032 QUINTANA CT","","RENO","NV","89521","-119.732811","39.434576","385","0.2119835","1950","3","2.000","2018","2019-01-10","470000","110950"
"44447","1","-100","19","1995","10","-100",,,,,,,,,"16051430250000","Salt Lake","88 S 900 E","STE 208","SALT LAKE CITY","UT","84102","-111.866096","40.767422","366","0.0100092","1433","2","2.000","2008","2017-04-20","0","228800"
"44552","1","100","52","1920","62","100",,,,,,,,,"0577257","Washington","1115 ECLIPSE DR","","SAINT GEORGE","UT","84770","-113.607090","37.107791","385","0.2199954","2741","4","3.000","2000","2007-06-15","0","371500"
"44614","0",,"31","1350",,,,,,,,,,,"13817812032","Clark","2445 DESERT GLEN DR","","LAS VEGAS","NV","89134","-115.282333","36.204742","385","0.1600092","1119","2","2.000","1990","2017-11-30","225990","57551"
"44809","0",,"11","1350",,,,,,,,,,,"19104413056","Clark","11970 CAMDEN BROOK ST","","LAS VEGAS","NV","89183","-115.168605","35.972386","385","0.0600092","1419","3","3.000","2006","2019-05-22","255000","68059"
"45330","0",,"12","1600",,,,,,,,,,,"55616105","Washoe","35 BRUSHLAND CT","","RENO","NV","89508","-119.963141","39.686294","385","0.1853994","1040","3","2.000","2002","2019-07-15","270000","50860"
"45365","0",,"8","1950",,,,,,,,,,,"14047111","Washoe","2211 BIG TRAIL CIR","","RENO","NV","89521","-119.723191","39.418003","385","0.1229339","1817","3","3.000","2005","2006-04-28","386500","88070"
"45595","0",,"7","825",,,,,,,,,,,"16324114132","Clark","5525 W FLAMINGO RD","UNIT 2005","LAS VEGAS","NV","89103","-115.217340","36.113840","366","0.0000000","870","1","1.000","1997","2010-07-07","46000","34341"
"45814","1","-100","23","3000","39","-100",,,,,,,,,"CQVC 18","Summit","8103 COURTYARD LOOP","APT 1","PARK CITY","UT","84098","-111.574111","40.748412","366","0.0000000","1442","0","0.000","2009","2015-08-31","0","302500"
"45901","0",,"34","1695",,,,,,,,,,,"652840004","Utah","1574 W 480 N","","LINDON","UT","84042","-111.753696","40.346109","386","0.0480028","2259","3","3.000","2013","2013-05-22","0","184250"
"46658","1","-10","20","850","24","-10",,,,,,,,,"16109216066","Clark","2971 JUNIPER HILLS BLVD","UNIT 101","LAS VEGAS","NV","89142","-115.062836","36.137802","366","0.0573921","891","2","2.000","1987","2017-08-31","74000","23157"
"46667","1","-50","87","2150","94","-50",,,,,,,,,"00377309","Washoe","200 TALUS WAY","APT 432","RENO","NV","89503","-119.827243","39.561070","366","0.0310606","1386","4","4.000","2004","2018-11-30","250000","55062"
"46946","0",,"5","1950",,,,,,,,,,,"19111821025","Clark","1951 VIA DELLE ARTI","","HENDERSON","NV","89044","-115.126927","35.956543","385","0.0800046","2265","4","3.000","2012","2016-01-05","270000","116709"
"47054","0",,"33","2700",,,,,,,,,,,"19108411044","Clark","12836 ALCORES ST","","LAS VEGAS","NV","89141","-115.183806","35.955940","385","0.1000000","2488","4","3.000","2019","2019-02-20","463166","25681"
"47246","0",,"51","1500",,,,,,,,,,,"00108514035","Clark","565 DESERT TORTOISE WAY","","MESQUITE","NV","89027","-114.082072","36.824622","385","0.1699954","1686","3","2.000","2006","2005-11-29","0","86838"
"47608","0",,"8","1195",,,,,,,,,,,"0310394","Washington","1840 W 1100 N","APT 17","SAINT GEORGE","UT","84770","-113.623531","37.127932","366","0.0199954","1252","3","2.500","1984",,"0","89430"
"47617","2","-200","42","1500","22","-50","15","-150",,,,,,,"0469703","Washington","1186 E 900 S","APT 25","ST GEORGE","UT","84790","-113.558415","37.091442","366","0.0500000","1424","2","2.000","1994","2011-11-21","0","116655"
"47947","0",,"15","1450",,,,,,,,,,,"17613710016","Clark","8605 NATURE SCENE DR","","LAS VEGAS","NV","89139","-115.210971","36.033268","385","0.0600092","1793","3","3.000","2006","2008-10-23","171823","80596"
"47989","0",,"3","1100",,,,,,,,,,,"16216810144","Clark","220 E FLAMINGO RD","UNIT 131","LAS VEGAS","NV","89169","-115.163225","36.115948","366","0.0000000","530","1","1.000","1992","2011-10-31","70000","33488"
"48008","0",,"12","1900",,,,,,,,,,,"12508815076","Clark","8036 DANCING SPRINGS ST","","LAS VEGAS","NV","89143","-115.280696","36.307763","385","0.0800046","2118","4","3.000","2004","2019-08-30","302900","85253"
"48174","0",,"12","1600",,,,,,,,,,,"01041103","Carson City","2340 EASTWOOD DR","","CARSON CITY","NV","89701","-119.751582","39.146058","385","0.1100092","1508","3","2.500","1985","2008-01-11","229000","54197"
"48258","0",,"9","1599",,,,,,,,,,,"12513510009","Clark","5036 WILD BUFFALO AVE","","LAS VEGAS","NV","89131","-115.210897","36.305521","385","0.1199954","2238","3","3.000","2002","2002-04-26","178150","86991"
"48345","0",,"2","1850",,,,,,,,,,,"19114617027","Clark","2132 DANZINGER PL","","HENDERSON","NV","89044","-115.122117","35.949845","385","0.1100092","1844","3","3.000","2017","2017-04-06","315415","113931"
"49160","0",,"10","1600",,,,,,,,,,,"16116813024","Clark","5665 CRIOLLO DR","","LAS VEGAS","NV","89122","-115.049883","36.115540","385","0.1699954","1971","3","2.000","2007","2012-04-27","167000","99095"
"49348","0",,"6","1695",,,,,,,,,,,"492680003","Utah","967 E 300 N","","LINDON","UT","84042","-111.692677","40.345206","385","0.2800046","1328","3","2.000","1997","2007-01-30","0","176440"
"49408","0",,"4","1450",,,,,,,,,,,"17612511070","Clark","7452 CLARITA CAVERN ST","","LAS VEGAS","NV","89139","-115.215215","36.054121","385","0.0600092","1532","4","3.000","2005","2017-11-01","236000","71804"
"49430","0",,"21","1495",,,,,,,,,,,"420770129","Utah","2078 W 1100 N","","PROVO","UT","84604","-111.694449","40.248440","366","0.0165289","1460","3","3.000","2014","2018-09-13","0","137500"
"49444","0",,"50","2250",,,,,,,,,,,"16425410197","Clark","5667 OAK BEND DR","","LAS VEGAS","NV","89135","-115.327088","36.085397","385","0.1199954","2573","4","4.000","2013","2013-08-28","345092","132937"
"49512","1","100","26","1300","23","100",,,,,,,,,"17830810081","Clark","830 CARNEGIE ST","APT 1111","HENDERSON","NV","89052","-115.090759","36.001712","366","0.0000000","1033","2","2.000","2003","2015-10-19","114000","44669"
"49514","3","1500","51","0","35","1600","31","-50","20","-50",,,,,"17830810089","Clark","830 CARNEGIE ST","APT 1211","HENDERSON","NV","89052","-115.091155","36.001574","366","0.0000000","1253","2","2.000","2003","2015-11-18","135000","49563"
"49621","0",,"5","1195",,,,,,,,,,,"16103118058","Clark","1164 BLACK CHERRY ST","","LAS VEGAS","NV","89142","-115.040310","36.158809","385","0.0500000","1278","2","2.000","2003","2013-07-15","109000","54293"
"49835","1","-100","62","3500","24","-100",,,,,,,,,"16220714249","Clark","3726 LAS VEGAS BLVD S","","LAS VEGAS","NV","89158","-115.174697","36.107416","366","0.0000000","1330","2","2.000","2007","2010-08-11","1050000","249477"
"50019","0",,"4","1175",,,,,,,,,,,"14004215189","Clark","4496 PENCESTER ST","","LAS VEGAS","NV","89115","-115.060681","36.242266","386","0.0300046","1241","3","2.000","2018","2018-11-30","180770","12431"
"50245","1","-50","3","1350","3","-50",,,,,,,,,"13830215184","Clark","905 DOMNUS LN","APT 206","LAS VEGAS","NV","89144","-115.308963","36.182465","366","0.0459137","1269","2","2.000","2002","2019-07-05","220000","49961"
"50391","0",,"48","1425",,,,,,,,,,,"12425512009","Clark","3029 AUSTIN PALE AVE","","NORTH LAS VEGAS","NV","89081","-115.106953","36.273024","385","0.0800046","1788","4","3.000","2006","2016-06-29","157000","79222"
"50619","0",,"7","825",,,,,,,,,,,"13832819200","Clark","8600 W CHARLESTON BLVD","APT 1102","LAS VEGAS","NV","89117","-115.283094","36.160355","366","0.0000000","730","1","1.000","1990","2006-07-06","158190","25382"
"50769","2","-50","16","1300","9","-25","3","-25",,,,,,,"121050006","Weber","438 CROSS ST","","OGDEN","UT","84404","-111.968653","41.248204","385","0.2000000","1040","3","1.000","1909","2019-02-05","0","88550"
"50981","0",,"79","1600",,,,,,,,,,,"16092113","Washoe","900 S MEADOWS PKWY","APT 2314","RENO","NV","89521","-119.751667","39.437998","366","0.0010101","1076","2","2.000","1999","2008-11-21","276000","53587"
"51533","3","-120","64","1995","8","-200","48","-100","40","180",,,,,"00380337","Washoe","4875 CIARRA KENNEDY LN","","RENO","NV","89503","-119.829556","39.570100","366","0.0258035","1556","3","3.000","2018","2018-12-13","292500","69469"
"51552","1","-100","59","1720","38","-100",,,,,,,,,"0491582","Washington","2342 W 1710 NORTH CIR","","SAINT GEORGE","UT","84770","-113.633768","37.137815","385","0.2500000","2050","3","2.000","1995","2016-03-18","0","147785"
"51695","1","-50","15","995","17","-50",,,,,,,,,"16323070350000","Salt Lake","814 E 3950 S","APT D","SALT LAKE CITY","UT","84107","-111.868010","40.685623","366","0.0100092","930","2","1.000","1979","2016-08-23","0","84810"
"51703","0",,"74","2050",,,,,,,,,,,"0544372","Washington","455 E 200 S","","IVINS","UT","84738","-113.668831","37.164953","385","0.2000000","2292","4","2.000","2005","2018-05-02","0","181555"
"52049","0",,"29","1695",,,,,,,,,,,"12525310003","Clark","5920 N JONES BLVD","","LAS VEGAS","NV","89130","-115.224972","36.266828","385","0.7899908","3252","4","4.000","1981","2013-01-04","140500","92114"
"52401","1","-100","14","1895","3","-100",,,,,,,,,"55635202","Washoe","18209 MORNING BREEZE CT","","RENO","NV","89508","-119.974723","39.691949","385","0.2084940","1792","3","2.000","2005","2005-08-09","271500","69509"
"52477","0",,"3","1295",,,,,,,,,,,"16320513056","Clark","8725 W FLAMINGO RD","APT 130","LAS VEGAS","NV","89147","-115.281480","36.113373","366","0.0573921","1156","2","2.000","2001","2019-07-26","145000","39685"
"52626","0",,"16","1200",,,,,,,,,,,"16103116102","Clark","1291 GOLDEN APPLE ST","","LAS VEGAS","NV","89142","-115.042488","36.157409","385","0.0399908","1273","3","3.000","2003","2018-07-11","141751","55239"
"53101","0",,"28","1250",,,,,,,,,,,"12521213066","Clark","6868 SKY POINTE DR","UNIT 1035","LAS VEGAS","NV","89131","-115.269939","36.286433","366","0.0000000","1196","2","2.000","2008","2017-09-15","140000","54353"
"53809","0",,"15","1400",,,,,,,,,,,"12419616044","Clark","4220 GALAPAGOS AVE","","NORTH LAS VEGAS","NV","89084","-115.196883","36.284436","385","0.0899908","1632","3","3.000","2007","2011-05-19","122000","83414"
"53989","0",,"5","1145",,,,,,,,,,,"13810615116","Clark","3673 IAN THOMAS ST","UNIT 201","LAS VEGAS","NV","89129","-115.247755","36.226991","366","0.0000000","1108","2","2.000","1996",,"0","37164"
"54235","0",,"28","2500",,,,,,,,,,,"16225711032","Clark","3158 BROCKINGTON DR","","LAS VEGAS","NV","89120","-115.107081","36.091604","385","0.1899908","2284","4","3.000","1980","2018-12-10","312500","74938"
"54416","4","-250","65","2500","19","-5","2","-45","29","-50","9","-150",,,"414990037","Utah","11881 N APOLLO WAY","","HIGHLAND","UT","84003","-111.806154","40.447860","385","0.1530073","1998","3","4.000","2004","2015-01-16","0","225170"
"54443","0",,"1","1345",,,,,,,,,,,"17712621088","Clark","2782 FOUNTAIN VISTA LN","","HENDERSON","NV","89074","-115.108652","36.050377","386","0.0199954","1405","2","3.000","2004","2014-04-24","155250","63276"
"54468","1","-100","5","1695","9","-100",,,,,,,,,"110560008","Davis","193 S TALBOT DR","","LAYTON","UT","84041","-111.947324","41.057859","385","0.2699954","1066","4","2.000","1975","2015-06-29","0","134200"
"54501","0",,"32","1600",,,,,,,,,,,"161340002","Weber","383 E 3550 N","","OGDEN","UT","84414","-111.969599","41.324808","385","0.1699954","1704","3","2.500","1993","2008-10-15","0","152900"
"55047","0",,"15","1650",,,,,,,,,,,"28064060020000","Salt Lake","422 E 9120 S","","SANDY","UT","84070","-111.879304","40.585785","385","0.1800046","1125","3","2.000","1963",,"0","131835"
"55285","0",,"6","995",,,,,,,,,,,"13823416010","Clark","1642 DISCUS DR","","LAS VEGAS","NV","89108","-115.238213","36.189806","386","0.0399908","900","2","2.000","1984","2011-09-14","0","26829"
"55529","1","-55","43","1250","13","-55",,,,,,,,,"13929613135","Clark","2612 RAINBOW CACTUS CT","","LAS VEGAS","NV","89106","-115.177092","36.182954","385","0.0800046","1183","3","2.000","2004","2003-11-13","134200","58335"
"55657","0",,"22","1295",,,,,,,,,,,"16062070360000","Salt Lake","450 E 100 S","APT 36","SALT LAKE CITY","UT","84111","-111.877833","40.766294","366","0.0100092","657","2","1.000","1949","2010-12-29","0","73040"
"55717","0",,"27","1800",,,,,,,,,,,"02234402","Lyon","621 WHITE EAGLE LN","","FERNLEY","NV","89408","-119.253994","39.598484","385","0.1417585","1561","3","2.000","2019","2019-08-08","0","79307"
"55726","2","-220","25","1995","1","-145","13","-75",,,,,,,"02234111","Lyon","604 GREY EAGLE LN","","FERNLEY","NV","89408","-119.255107","39.598396","385","0.1494031","1561","3","2.000","2019","2019-07-30","267000","79307"
"55729","3","-200","39","2095","4","-100","10","-50","26","-50",,,,,"02234110","Lyon","594 GREY EAGLE LN","","FERNLEY","NV","89408","-119.255192","39.598572","385","0.1491276","1743","3","2.000","2019","2019-07-30","0","83491"
"55731","0",,"7","2000",,,,,,,,,,,"02234404","Lyon","601 WHITE EAGLE LN","","FERNLEY","NV","89408","-119.253991","39.598841","385","0.1417126","1743","4","2.000","2018","2019-02-15","274000","93248"
"55883","0",,"5","1425",,,,,,,,,,,"535340002","Utah","234 E 630 N","","VINEYARD","UT","84058","-111.748045","40.308457","378","0.0733701","6396","12","12.000","2016","2018-04-27","0","446600"
"55995","1","50","9","1250","3","50",,,,,,,,,"12527214020","Clark","7316 MAIDEN RUN AVE","","LAS VEGAS","NV","89130","-115.254926","36.270670","385","0.1100092","1252","3","2.000","1997","2011-06-22","90000","55852"
"56202","1","-50","32","1750","15","-50",,,,,,,,,"12507811046","Clark","8149 MARSHALL CANYON DR","","LAS VEGAS","NV","89166","-115.303108","36.309652","385","0.0899908","1853","3","3.000","2004","2019-06-25","250000","81009"
"56275","0",,"12","1950",,,,,,,,,,,"02935305","Lyon","305 SAN ROMA DR","","DAYTON","NV","89403","-119.606622","39.221167","385","0.2754821","2044","3","2.000","2018","2019-08-06","430500","118846"
"56510","0",,"21","1450",,,,,,,,,,,"12517411031","Clark","8941 MOUNT BAKER CT","","LAS VEGAS","NV","89149","-115.291439","36.295084","385","0.0500000","1491","3","3.000","2008","2012-10-09","98000","72735"
"56528","0",,"40","1800",,,,,,,,,,,"14017313","Washoe","500 DAMONTE RANCH PKWY","STE 958","RENO","NV","89521","-119.751125","39.420621","169","0.1139578","4964","0","0.000","2000","2019-06-11","0","245000"
"56626","0",,"41","1200",,,,,,,,,,,"16324213227","Clark","4400 S JONES BLVD","UNIT 1095","LAS VEGAS","NV","89103","-115.222529","36.110523","366","0.0000000","1170","3","2.000","1998","2006-11-13","226900","44118"
"56696","0",,"8","1295",,,,,,,,,,,"13905215045","Clark","3106 ALFA ROMERO AVE","","NORTH LAS VEGAS","NV","89031","-115.182365","36.241474","385","0.1300046","1527","3","2.000","1995","2003-10-23","152170","61128"
"56766","0",,"28","941",,,,,,,,,,,"0539331","Washington","794 N 195 W","","LA VERKIN","UT","84745","-113.273520","37.216597","372","0.4300046","5678","12","10.000","2003","2009-06-09","0","272250"
"57182","5","-355","72","2850","10","-55","12","-120","21","-80","1","-45","21","-55","34074030290000","Salt Lake","14747 S BREWSTER DR","","DRAPER","UT","84020","-111.877166","40.483546","385","0.1899908","2542","4","3.000","2001","2016-09-27","0","264385"
"57686","0",,"11","1400",,,,,,,,,,,"18609610006","Clark","664 AVENUE H","","BOULDER CITY","NV","89005","-114.831360","35.974640","385","0.1300046","820","2","1.000","1938","2013-07-18","110000","36151"
"57691","0",,"16","1450",,,,,,,,,,,"16306220031","Clark","9901 VIA TORO AVE","","LAS VEGAS","NV","89117","-115.313637","36.154043","385","0.1000000","1461","3","3.000","1999","2011-07-21","135000","63485"
"57725","1","-50","15","2250","8","-50",,,,,,,,,"16353060170000","Salt Lake","2885 E 3900 S","","SALT LAKE CITY","UT","84124","-111.810472","40.687280","385","0.2100092","1248","3","2.000","1962","2017-10-16","0","167200"
"57750","0",,"3","1300",,,,,,,,,,,"17713319039","Clark","2821 MILL POINT DR","","HENDERSON","NV","89074","-115.111991","36.032551","386","0.0500000","1247","2","3.000","1993","1996-05-01","100000","46017"
"57756","2","25","45","1350","15","-51","175","76",,,,,,,"32122521310000","Salt Lake","5079 W STONE TERRACE RD","","HERRIMAN","UT","84096","-112.012015","40.487747","377","0.0300046","1294","3","2.000","2006","2006-11-27","0","106095"
"57854","0",,"11","3650",,,,,,,,,,,"13725819001","Clark","101 N BUTEO WOODS LN","","LAS VEGAS","NV","89144","-115.322132","36.174750","385","0.2000000","3461","4","5.000","2001","2003-08-06","414500","179419"
"58266","0",,"3","1250",,,,,,,,,,,"16126111006","Clark","5047 MIDNIGHT OIL DR","","LAS VEGAS","NV","89122","-115.028601","36.097986","385","0.0899908","1348","3","2.000","2003","2005-08-29","244000","62651"
"58704","0",,"7","1600",,,,,,,,,,,"08768114","Washoe","17744 GEORGETOWN DR","","RENO","NV","89508","-119.973650","39.686907","385","0.1782828","1008","3","2.000","2002","2017-10-16","222000","51009"
"58713","1","45","46","1050","50","45",,,,,,,,,"03144322","Washoe","2102 G ST","","SPARKS","NV","89431","-119.771805","39.539968","366","0.0010101","975","2","1.000","1980","2013-05-31","36000","26452"
"60045","0",,"1","1800",,,,,,,,,,,"17617215118","Clark","202 AUGUSTA COURSE AVE","","LAS VEGAS","NV","89148","-115.293200","36.033989","385","0.0899908","2668","3","3.000","2009","2009-11-23","281590","117733"
"60830","0",,"16","1750",,,,,,,,,,,"24005225","Washoe","2185 STANHOPE LN","","RENO","NV","89502","-119.750267","39.499393","385","0.0874426","1223","3","3.000","2012","2018-06-27","295000","67638"
"61116","0",,"7","1950",,,,,,,,,,,"17612712032","Clark","7734 CORAL CACTUS CT","","LAS VEGAS","NV","89139","-115.210278","36.049032","385","0.0800046","2389","4","3.000","2016","2019-07-29","347500","104680"
"61247","0",,"14","1350",,,,,,,,,,,"355310040","Utah","1518 W 690 S","","OREM","UT","84058","-111.731643","40.284569","377","0.0179982","1451","3","3.000","2007","2008-05-02","0","129305"
"61552","1","-100","46","1650","40","-100",,,,,,,,,"12534210006","Clark","7280 VISTA BONITA DR","","LAS VEGAS","NV","89149","-115.254096","36.258711","386","0.1000000","1608","2","2.000","1993","1993-12-23","110000","56489"
"62284","2","-200","30","1395","22","-195","15","-5",,,,,,,"01946018","Washoe","2902 EASTSHORE PL","","RENO","NV","89509","-119.803988","39.498392","366","0.1000000","1261","2","2.000","1978","2012-06-01","71000","32511"
"62497","0",,"56","1895",,,,,,,,,,,"0943520","Washington","4918 W 3220 S","","HURRICANE","UT","84737","-113.399716","37.120829","366","0.2100092","1909","3","2.000","2016","2018-04-13","0","387200"
"62560","0",,"7","1550",,,,,,,,,,,"12433811022","Clark","1126 PUFFIN CT","","NORTH LAS VEGAS","NV","89031","-115.156946","36.249661","385","0.1399908","1517","4","2.000","1992","2018-04-13","229900","55998"
"63246","0",,"13","1650",,,,,,,,,,,"17625410038","Clark","5627 JELSMA AVE","","LAS VEGAS","NV","89141","-115.218532","35.998971","385","0.0899908","2110","3","3.000","2007","2011-08-23","153000","100133"
"63353","0",,"5","1200",,,,,,,,,,,"17735610055","Clark","950 SEVEN HILLS DR","UNIT 523","HENDERSON","NV","89052","-115.120322","35.992564","366","0.0000000","1159","3","2.000","2001","2009-04-24","77500","43190"
"64182","0",,"21","1650",,,,,,,,,,,"13736411036","Clark","10700 AMBER RIDGE DR","UNIT 101","LAS VEGAS","NV","89144","-115.329657","36.163142","366","0.0000230","1691","2","2.000","2000","2003-01-31","0","72302"
"64203","0",,"5","1550",,,,,,,,,,,"19104313034","Clark","11738 PINE SHADOWS ST","","LAS VEGAS","NV","89183","-115.169271","35.976456","385","0.0800046","2014","4","3.000","2006","2013-01-31","150000","91036"
"64361","0",,"45","1425",,,,,,,,,,,"456080010","Utah","672 N 130 E","","VINEYARD","UT","84059","-111.750635","40.309262","378","0.0646924","7191","12","12.000","2017","2017-01-24","0","402655"
"64709","0",,"8","1850",,,,,,,,,,,"13735116020","Clark","11576 ARUBA BEACH AVE","","LAS VEGAS","NV","89138","-115.348952","36.172406","385","0.1100092","2320","4","3.000","2004","2016-09-09","300000","98979"
"64976","0",,"36","1395",,,,,,,,,,,"04-183-0202","Cache","1521 N 420 W","APT 102","LOGAN","UT","84341","-111.844537","41.759833","386","0.0199954","1365","0","0.000","2005",,"0","150840"
"65001","0",,"20","1495",,,,,,,,,,,"12521311123","Clark","8229 FAWN BROOK CT","","LAS VEGAS","NV","89149","-115.275796","36.283012","385","0.1699954","2289","4","3.000","1998","2015-08-18","140000","95848"
"65129","1","5","88","1745","217","5",,,,,,,,,"16402224184","Clark","1571 PLAZA CENTRE DR","UNIT 101","LAS VEGAS","NV","89135","-115.344333","36.154861","386","0.0000000","1663","4","3.000","2009","2014-11-18","236800","99237"
"65130","1","-50","12","1650","19","-50",,,,,,,,,"19114515073","Clark","2077 VIA FIRENZE","","HENDERSON","NV","89044","-115.125481","35.952150","386","0.0500000","1294","2","3.000","2010","2018-11-20","242000","64751"
"65878","0",,"4","1350",,,,,,,,,,,"13909314032","Clark","3412 OUTLOOK POINT ST","","NORTH LAS VEGAS","NV","89032","-115.169756","36.221484","385","0.1100092","1535","3","2.000","1996","2011-07-26","87000","60468"
"65997","0",,"2","1600",,,,,,,,,,,"061160002","Weber","4273 TAYLOR AVE","","OGDEN","UT","84403","-111.942625","41.185234","385","0.3000000","1766","3","2.000","1957","2010-12-30","0","156200"
"66738","2","-75","12","950","6","-25","4","-50",,,,,,,"020030009","Weber","757 30TH ST","","OGDEN","UT","84403","-111.960621","41.209738","153","0.1399908","1700","5","2.000","1957","2019-03-01","0","82500"
"66950","0",,"3","1995",,,,,,,,,,,"00377308","Washoe","200 TALUS WAY","APT 333","RENO","NV","89503","-119.827260","39.561263","366","0.0310606","1386","4","4.000","2004","2017-08-15","249000","55062"
"67183","0",,"4","1300",,,,,,,,,,,"13907616028","Clark","3930 JAMISON PARK LN","","NORTH LAS VEGAS","NV","89032","-115.192841","36.227080","386","0.1000000","1352","3","2.000","2010","2019-01-15","226000","62733"
"67200","0",,"8","1465",,,,,,,,,,,"17732212019","Clark","10878 AVENZANO ST","","LAS VEGAS","NV","89141","-115.187839","35.991949","385","0.0899908","1849","4","3.000","2003","2016-04-26","212000","77649"
"67414","0",,"4","1350",,,,,,,,,,,"16320213018","Clark","4358 COYOTE CREST CT","","LAS VEGAS","NV","89147","-115.295315","36.110093","385","0.1000000","1254","3","2.000","1997","2017-01-23","207000","61336"
"67663","2","-95","32","1595","8","-45","5","-50",,,,,,,"16312711081","Clark","5077 STAMPA AVE","","LAS VEGAS","NV","89146","-115.210594","36.136198","385","0.1399908","1444","4","2.000","1965","2016-08-17","152000","36899"
"67709","0",,"5","1500",,,,,,,,,,,"093290011","Weber","5393 S 3800 W","","ROY","UT","84067","-112.072303","41.165519","385","0.1899908","1071","4","2.000","1989","2006-11-15","0","130350"
"67740","0",,"10","1550",,,,,,,,,,,"16133714058","Clark","935 SITTING BULL DR","","HENDERSON","NV","89014","-115.053462","36.075478","385","0.1199954","1829","4","3.000","1993","2014-11-07","122731","67813"
"67778","1","-100","34","1600","8","-100",,,,,,,,,"364650039","Utah","2625 E 1250 S","","SPANISH FORK","UT","84660","-111.610723","40.093871","385","0.2600092","1353","3","2.000","1993","1994-04-25","0","155100"
"67843","0",,"5","1100",,,,,,,,,,,"16305415194","Clark","2200 S FORT APACHE RD","UNIT 1098","LAS VEGAS","NV","89117","-115.293743","36.145158","366","0.0000000","1053","2","2.000","1991","2009-09-16","56000","37196"
"68895","0",,"17","2300",,,,,,,,,,,"16412615035","Clark","2882 WINDSET CT","","LAS VEGAS","NV","89135","-115.323908","36.138193","385","0.2000000","3027","4","3.000","2000","2010-09-20","336000","121894"
"69117","1","-100","59","1095","44","-100",,,,,,,,,"13827413130","Clark","101 LUNA WAY","APT 103","LAS VEGAS","NV","89145","-115.255928","36.175155","366","0.0711203","964","2","2.000","1990","2019-02-15","125000","27745"
"69244","1","-150","23","2200","14","-150",,,,,,,,,"52015209","Washoe","2770 ALBAZANO DR","","SPARKS","NV","89436","-119.692238","39.599036","385","0.1300046","1672","2","2.000","2002","2019-07-31","384000","104413"
"69432","0",,"53","2580",,,,,,,,,,,"17734110015","Clark","448 ATLAS PEAK AVE","","LAS VEGAS","NV","89183","-115.153720","35.997333","385","0.1399908","3254","5","3.000","2002","2019-08-30","385000","137527"
"69774","0",,"5","850",,,,,,,,,,,"17917611074","Clark","601 CABRILLO CIR","UNIT 1074","HENDERSON","NV","89015","-114.966369","36.036218","366","0.0208907","886","2","2.000","1994","2005-09-02","125000","27216"
"70014","1","-50","23","950","19","-50",,,,,,,,,"16324611122","Clark","4954 RIVER GLEN DR","UNIT 122","LAS VEGAS","NV","89103","-115.209715","36.110835","366","0.0000000","700","1","1.000","1982","2006-06-15","140000","19340"
"70284","0",,"6","2495",,,,,,,,,,,"16361550080000","Salt Lake","3600 E MONZA DR","","SALT LAKE CITY","UT","84109","-111.793703","40.689690","385","0.5300046","2003","6","3.000","1960","2012-04-27","0","294800"
"70291","0",,"4","1045",,,,,,,,,,,"16312050020000","Salt Lake","384 E SCOTT AVE","","SALT LAKE CITY","UT","84115","-111.880155","40.695609","385","0.1199954","952","2","1.000","1958","2012-04-27","0","86515"
"70924","4","-175","42","1741","25","-50","6","-50","5","-25","7","-50",,,"0781401","Washington","212 N 2940 E","","SAINT GEORGE","UT","84790","-113.522823","37.112040","385","0.1399908","1858","4","2.000","2006","2017-04-24","0","154055"
"71004","1","100","13","1700","9","100",,,,,,,,,"17608715007","Clark","318 GLACIER MEADOW RD","","LAS VEGAS","NV","89148","-115.281253","36.047492","385","0.0899908","2006","3","3.000","2015","2015-09-18","338990","113460"
"71036","0",,"1","0",,,,,,,,,,,"13832819039","Clark","8600 W CHARLESTON BLVD","APT 2019","LAS VEGAS","NV","89117","-115.280756","36.159769","366","0.0000000","998","2","2.000","1990","2009-07-17","55000","32552"
"71158","2","-200","46","2310","30","-100","8","-100",,,,,,,"33142030260000","Salt Lake","15112 S BATTLE DR","","BLUFFDALE","UT","84065","-111.915950","40.476997","385","0.1100092","1782","3","3.000","2014","2014-12-31","0","182545"
"71242","0",,"17","1450",,,,,,,,,,,"0717424","Washington","1630 E 2450 S","UNIT 279","SAINT GEORGE","UT","84790","-113.549047","37.065247","366","0.0699954","1222","3","2.000","2004","2005-02-17","0","128315"
"71495","0",,"8","1100",,,,,,,,,,,"13828119005","Clark","8068 CIMARRON RIDGE DR","UNIT 101","LAS VEGAS","NV","89128","-115.271091","36.187039","366","0.0703168","1098","3","2.000","1995","2019-08-20","177000","37658"
"71511","0",,"21","1370",,,,,,,,,,,"16061850840000","Salt Lake","230 E ST","BROADWAY 1108","SALT LAKE CITY","UT","84103","-111.884259","40.762429","366","0.0100092","700","1","1.000","1985","2014-07-22","0","150755"
"71522","0",,"23","1466",,,,,,,,,,,"0654452","Washington","3450 S 670 EAST CIR","","SAINT GEORGE","UT","84790","-113.569716","37.049257","385","0.2399908","1664","3","2.000","2001","2009-01-28","0","294500"
"71542","0",,"23","850",,,,,,,,,,,"05:051:0102","Uintah","422 E 500 S","APT B","VERNAL","UT","84078","-109.520656","40.448179","366","0.0000000","1297","0","0.000","2006",,"0","54939"
"71889","0",,"55","1500",,,,,,,,,,,"13915417083","Clark","335 BURGOS AVE","","NORTH LAS VEGAS","NV","89030","-115.144675","36.204558","385","0.1399908","1393","3","2.000","2019","2019-01-31","222462","15750"
"72610","0",,"24","1400",,,,,,,,,,,"12435215012","Clark","804 SENECA HEIGHTS AVE","","NORTH LAS VEGAS","NV","89081","-115.131338","36.255228","385","0.0899908","2249","4","3.000","2007","2006-08-28","314111","89452"
"72796","0",,"20","1900",,,,,,,,,,,"142008217034","Douglas","3517 LONG DR","","MINDEN","NV","89423","-119.762816","39.092843","385","0.1100092","1689","0","0.000","2005","2018-12-11","395000","73478"
"72887","0",,"12","1100",,,,,,,,,,,"16325510128","Clark","5155 W TROPICANA AVE","UNIT 2050","LAS VEGAS","NV","89103","-115.211304","36.097916","366","0.0528926","1183","2","2.000","1995","2013-11-12","71209","39024"
"73352","0",,"32","1550",,,,,,,,,,,"049025023","Elko","910 ALPINE DR","","SPRING CREEK","NV","89815","-115.560084","40.703209","385","1.1899908","1248","3","2.000","1995","2006-07-21","176000","50082"
"73353","0",,"13","1100",,,,,,,,,,,"001870009","Elko","1625 CLARKSON DR","APT 9","ELKO","NV","89801","-115.743372","40.834422","366","0.0634757","1076","0","0.000","1982","2017-11-21","114000","21818"
"73356","0",,"85","1450",,,,,,,,,,,"044001022","Elko","391 WHEAR DR","","SPRING CREEK","NV","89815","-115.635431","40.738287","373","0.2735078","1716","3","2.000","1990","2007-02-26","149900","31718"
"73470","0",,"10","2700",,,,,,,,,,,"17817117004","Clark","197 WEBSTER WAY","","HENDERSON","NV","89074","-115.077673","36.040188","385","0.1699954","3474","5","4.000","1991","2002-09-12","319000","130967"
"73730","0",,"15","1200",,,,,,,,,,,"04:102:0005","Uintah","1105 N 3000 W","","VERNAL","UT","84078","-109.586572","40.471417","385","0.4100092","2080","0","0.000","1976",,"0","91784"
"74568","0",,"24","2300",,,,,,,,,,,"16412615003","Clark","2738 GLEN PORT ST","","LAS VEGAS","NV","89135","-115.323621","36.139950","385","0.1300046","3027","4","3.000","1998","2003-03-04","292000","117343"
"74581","3","-900","59","3195","21","-600","12","-200","12","-100",,,,,"17617511014","Clark","533 SINFOLD PARK ST","","LAS VEGAS","NV","89148","-115.281963","36.038277","385","0.1800046","3699","4","4.000","2002","2013-01-07","344000","139802"
"74906","0",,"21","1695",,,,,,,,,,,"02085709","Lyon","1005 FOSTER WAY","","FERNLEY","NV","89408","-119.195933","39.594404","385","0.1438246","1656","3","2.000","2003","2019-05-17","257500","79305"
"74918","0",,"4","1325",,,,,,,,,,,"12517310396","Clark","7452 VITAL CT","","LAS VEGAS","NV","89149","-115.294627","36.296910","385","0.0399908","1598","3","3.000","2005","2012-04-27","0","73318"
"74940","0",,"4","1650",,,,,,,,,,,"01424303","Washoe","330 GLENMANOR DR","","RENO","NV","89509","-119.808862","39.506205","385","0.1510101","925","3","1.000","1952",,"0","38029"
"75228","0",,"1","1175",,,,,,,,,,,"16115714024","Clark","6463 HAMILTON GROVE AVE","","LAS VEGAS","NV","89122","-115.032342","36.121678","385","0.0800046","1589","3","3.000","2005","2009-05-20","91000","72212"
"75612","0",,"11","1425",,,,,,,,,,,"12518515033","Clark","9462 BLOOMING GROVE AVE","","LAS VEGAS","NV","89149","-115.303372","36.306370","385","0.0600092","1852","3","3.000","2011","2013-05-24","180000","86465"
"75877","2","-246","36","1995","27","-145","7","-101",,,,,,,"51026202","Washoe","589 PANAMA DR","","SPARKS","NV","89436","-119.732710","39.599132","385","0.1810147","2295","3","3.000","2004","2005-06-24","436000","92253"
"76242","0",,"41","975",,,,,,,,,,,"B-1917-0038-0000","Iron","340 W 1425 N","APT 75","CEDAR CITY","UT","84721","-113.065424","37.703976","386","0.0210055","0","0","0.000",,,"0","79750"
"76243","2","-100","23","1300","22","-50","8","-50",,,,,,,"0847811","Washington","2476 MANZONI RD","","SANTA CLARA","UT","84765","-113.667911","37.150363","366","0.0199954","1306","3","2.500","2007","2017-11-17","0","91520"
"76481","1","-100","40","900","1","-100",,,,,,,,,"05:051:0117","Uintah","393 E 600 S","UNIT G","VERNAL","UT","84078","-109.521324","40.447514","366","0.0000000","1468","0","0.000","2006",,"0","55479"
"76620","0",,"1","1100",,,,,,,,,,,"17817719044","Clark","75 N VALLE VERDE DR","APT 724","HENDERSON","NV","89074","-115.066344","36.031850","366","0.0731175","1080","2","2.000","1997","2014-06-02","110000","35537"
"76698","1","-350","18","1250","73","-350",,,,,,,,,"16083260270000","Salt Lake","1054 S 900 E","","SALT LAKE CITY","UT","84105","-111.865728","40.746129","375","0.1800046","2305","5","3.000","1902","2014-04-15","0","288860"
"76980","1","1700","43","0","5","1700",,,,,,,,,"17732413022","Clark","11185 VAREDO CT","","LAS VEGAS","NV","89141","-115.186979","35.986327","385","0.1100092","2793","4","3.000","2002","2009-07-24","130000","96223"
"77065","1","1875","27","0","16","1875",,,,,,,,,"534940068","Utah","10918 N MARSALA DR","","HIGHLAND","UT","84003","-111.789845","40.430308","377","0.0222911","1912","3","3.000","2013","2014-03-13","0","162305"
"77289","0",,"9","2395",,,,,,,,,,,"13735216020","Clark","565 EL LORO ST","","LAS VEGAS","NV","89138","-115.351499","36.169248","385","0.1100092","2461","3","3.000","2005","2015-04-29","329000","108756"
"77545","0",,"6","1350",,,,,,,,,,,"17634111016","Clark","10542 LA CAMPANA ST","","LAS VEGAS","NV","89179","-115.255034","35.997616","385","0.0500000","1284","3","3.000","2008","2008-03-28","196165","70585"
"78192","0",,"31","1600",,,,,,,,,,,"13828115034","Clark","8269 CIMARRON RIDGE DR","","LAS VEGAS","NV","89128","-115.275888","36.185463","385","0.1500000","1259","3","3.000","1993","2017-05-24","190000","50344"
"78229","0",,"5","1800",,,,,,,,,,,"16330716027","Clark","9562 NEWTON GROVE CT","","LAS VEGAS","NV","89148","-115.301125","36.089807","385","0.1100092","2701","3","3.000","2001","2011-09-20","168000","99780"
"78293","0",,"5","1550",,,,,,,,,,,"16319315001","Clark","9806 W TOMPKINS AVE","","LAS VEGAS","NV","89147","-115.306516","36.104078","385","0.1399908","1949","3","3.000","2006","2010-01-22","0","85444"
"78392","0",,"1","1500",,,,,,,,,,,"13822416052","Clark","7520 COUNCIL AVE","","LAS VEGAS","NV","89128","-115.257397","36.189329","385","0.1100092","1263","3","2.000","1992","2018-10-24","252000","54528"
"79034","0",,"8","1600",,,,,,,,,,,"02252101","Lyon","4574 SPAIGHT WAY","","FERNLEY","NV","89408","-119.204045","39.595860","385","0.1409550","1630","3","2.000","2018","2019-04-12","0","83235"
"79480","0",,"28","1495",,,,,,,,,,,"17613810029","Clark","4917 CAPROCK CANYON AVE","","LAS VEGAS","NV","89139","-115.208337","36.028235","385","0.0800046","2045","3","3.000","2005","2017-05-17","250000","91045"
"79929","1","20","115","1175","30","20",,,,,,,,,"14019314079","Clark","1868 LUNA ALEGRE ST","","LAS VEGAS","NV","89115","-115.093322","36.193531","385","0.0600092","1186","3","3.000","2007","2009-01-23","89900","50526"
"80300","0",,"7","1425",,,,,,,,,,,"13808114033","Clark","8865 PERFECT DIAMOND CT","","LAS VEGAS","NV","89129","-115.290826","36.232908","385","0.1000000","1253","3","2.000","2003","2003-05-23","155320","64157"
"80474","1","-100","44","1850","21","-100",,,,,,,,,"12508327022","Clark","8301 WINTERCHASE PL","","LAS VEGAS","NV","89143","-115.295939","36.310621","385","0.1100092","2013","4","3.000","2006","2018-05-04","290500","88081"
"80809","0",,"42","0",,,,,,,,,,,"14018211025","Clark","2921 COUNTRY MANOR LN","APT 139","LAS VEGAS","NV","89115","-115.093594","36.212451","366","0.0608815","1015","2","2.000","1983","2019-01-30","95000","20191"
"81100","0",,"26","1295",,,,,,,,,,,"17605813075","Clark","8949 ORNATE GLADE AVE","","LAS VEGAS","NV","89148","-115.287016","36.057886","385","0.0500000","1671","3","3.000","2003","2015-10-09","165000","67095"
"81151","0",,"3","1850",,,,,,,,,,,"12508122007","Clark","9025 REINDEER LAKE ST","","LAS VEGAS","NV","89143","-115.294263","36.319724","385","0.1600092","2316","3","3.000","2004","2011-10-06","192000","128344"
"81357","0",,"7","850",,,,,,,,,,,"14030515019","Clark","1541 LINNBAKER LN","UNIT 203","LAS VEGAS","NV","89110","-115.084587","36.187191","366","0.0669421","668","1","1.000","1994","2019-11-06","85000","23286"
"81749","0",,"6","1600",,,,,,,,,,,"0824179","Washington","280 N 340 E","","IVINS","UT","84738","-113.671374","37.173079","385","0.2399908","2647","3","4.000","2012","2014-01-31","0","280335"
"81770","1","-100","29","1395","19","-100",,,,,,,,,"17603510149","Clark","7255 W SUNSET RD","APT 2073","LAS VEGAS","NV","89113","-115.249151","36.068343","366","0.0000000","1156","3","2.000","2001","2019-08-16","182500","42535"
"82260","0",,"17","1200",,,,,,,,,,,"13701414339","Clark","10550 W ALEXANDER RD","UNIT 2214","LAS VEGAS","NV","89129","-115.328040","36.234215","366","0.0000000","1133","2","2.000","2003","2011-02-02","67500","49446"
"82367","0",,"19","1500",,,,,,,,,,,"13836611096","Clark","5141 HARVEST MOON LN","","LAS VEGAS","NV","89107","-115.211688","36.166585","386","0.1291322","1406","2","2.000","1989","2005-11-21","230000","52667"
"82918","2","-100","28","1600","6","-50","37","-50",,,,,,,"17620613022","Clark","8874 BRINDISI PARK AVE","","LAS VEGAS","NV","89148","-115.285631","36.022321","385","0.0699954","1930","4","3.000","2009","2018-05-30","305000","83394"
"82946","0",,"9","1495",,,,,,,,,,,"21362050110000","Salt Lake","7976 S PIONEER ST","","MIDVALE","UT","84047","-111.899985","40.606501","385","0.2100092","900","3","2.000","1941","2007-05-31","0","122375"
"84137","0",,"22","1795",,,,,,,,,,,"17921119060","Clark","981 ALFONSO AVE","","HENDERSON","NV","89015","-114.950910","36.026577","385","0.1000000","1934","3","3.000","2005","2016-08-29","200000","77273"
"84294","0",,"2","575",,,,,,,,,,,"371180049","Utah","1343 S 1370 E","","PROVO","UT","84606","-111.634535","40.215706","377","0.0239899","1600","3","4.000","1998","2015-09-04","0","131230"
"84318","0",,"9","2200",,,,,,,,,,,"17627311009","Clark","7652 BRISK OCEAN AVE","","LAS VEGAS","NV","89178","-115.258389","36.002648","385","0.0899908","2704","3","3.000","2007","2017-02-27","329000","120763"
"84351","0",,"1","1125",,,,,,,,,,,"17701111012","Clark","2995 E SUNSET RD","UNIT 241","LAS VEGAS","NV","89120","-115.109968","36.069872","366","0.0585399","1118","3","2.000","1990","2018-10-01","172000","37893"
"84518","0",,"10","2395",,,,,,,,,,,"0958719","Washington","3066 E TANOAK DR","","SAINT GEORGE","UT","84790","-113.520397","37.048462","385","0.2300046","2622","4","3.500","2016","2016-11-18","0","187605"
"84519","2","95","37","2100","199","195","9","-100",,,,,,,"0947870","Washington","6102 S RIMRUNNER DR","","ST GEORGE","UT","84790","-113.509035","37.004011","385","0.3000000","2642","4","3.500","2016","2016-11-30","0","178255"
"84538","3","-400","80","1895","42","-100","12","-145","10","-155",,,,,"17802113021","Clark","778 EASTER LILY PL","","HENDERSON","NV","89011","-115.021367","36.070157","385","0.0899908","1733","4","3.000","2009","2014-07-14","138386","82506"
"84631","0",,"2","2300",,,,,,,,,,,"16425814009","Clark","10505 HARVEST GREEN WAY","","LAS VEGAS","NV","89135","-115.322255","36.085722","385","0.1100092","2177","3","3.000","2012","2019-05-31","410000","120709"
"84720","0",,"49","1095",,,,,,,,,,,"17720813118","Clark","2615 W GARY AVE","UNIT 1060","LAS VEGAS","NV","89123","-115.176015","36.013910","366","0.0000000","940","2","2.000","1999","2008-07-17","102000","39747"
"85230","0",,"18","1700",,,,,,,,,,,"16216810492","Clark","260 E FLAMINGO RD","UNIT 329","LAS VEGAS","NV","89169","-115.160566","36.116401","366","0.0000000","692","1","1.000","1992","2012-09-14","93000","37439"
"85434","1","-25","42","1275","102","-25",,,,,,,,,"05:025:0031","Uintah","209 W 200 S","","VERNAL","UT","84078","-109.532475","40.452541","385","0.2399908","1436","0","0.000","1947",,"0","89411"
"85825","0",,"2","1550",,,,,,,,,,,"13819415036","Clark","9748 DOUBLE ROCK DR","","LAS VEGAS","NV","89134","-115.309904","36.190711","385","0.0899908","1153","3","2.000","1995","2012-03-22","110000","58371"
"86070","2","-145","37","1595","14","-100","9","-45",,,,,,,"16316620104","Clark","3640 SURFBOARD CT","","LAS VEGAS","NV","89147","-115.267663","36.123303","385","0.0600092","1345","2","3.000","2005","2010-08-26","114000","63716"
"86318","0",,"9","1095",,,,,,,,,,,"08667216","Washoe","13958 LEAR BLVD","","RENO","NV","89506","-119.880797","39.643750","366","0.0010101","1128","2","2.000","1979","2016-08-05","125000","22578"
"87019","0",,"8","1095",,,,,,,,,,,"12429410093","Clark","2916 PARADISE HILL CT","","NORTH LAS VEGAS","NV","89031","-115.180512","36.264032","385","0.0399908","1081","2","2.000","2000","2012-03-29","45000","47771"
"87041","2","-400","206","2600","120","-200","117","-200",,,,,,,"16220312019","Clark","4575 DEAN MARTIN DR","UNIT 400","LAS VEGAS","NV","89103","-115.182158","36.106746","366","0.0000000","1579","2","2.000","2005","2007-07-31","638730","152383"
"88943","0",,"22","2300",,,,,,,,,,,"16401717015","Clark","10226 SOURWOOD AVE","","LAS VEGAS","NV","89135","-115.316465","36.148445","385","0.1399908","1923","3","3.000","2005","2009-07-06","265000","99516"
"88992","0",,"10","995",,,,,,,,,,,"17702210058","Clark","6885 TAMARUS ST","UNIT 202","LAS VEGAS","NV","89119","-115.134736","36.065068","366","0.0669421","957","2","2.000","1990","1994-01-12","72000","28714"
"89049","0",,"13","1400",,,,,,,,,,,"16216810102","Clark","210 E FLAMINGO RD","UNIT 311","LAS VEGAS","NV","89169","-115.163295","36.116900","366","0.0000000","796","1","1.000","1992","2018-09-17","215000","41999"
"89414","0",,"3","1000",,,,,,,,,,,"16218111109","Clark","3474 MYRTLE AVE","","LAS VEGAS","NV","89102","-115.204361","36.127137","385","0.1500000","1104","4","2.000","1973","2019-09-25","200000","35355"
"89734","0",,"8","975",,,,,,,,,,,"02604203","Washoe","3952 CLEAR ACRE LN","APT 275","RENO","NV","89512","-119.780592","39.567274","366","0.0010101","963","2","1.000","1979","2018-06-12","123000","16698"
"90153","1","-50","7","1400","5","-50",,,,,,,,,"B-1833-0034-0000","Iron","1991 N 550 W","","CEDAR CITY","UT","84721","-113.070606","37.713508","181","0.1600092","0","0","0.000",,,"0","105830"
"90373","0",,"2","1650",,,,,,,,,,,"12428214031","Clark","6040 HICKORYWOOD DR","","NORTH LAS VEGAS","NV","89031","-115.166163","36.269610","385","0.1600092","1722","4","3.000","1996","2018-06-01","260000","65134"
"90861","0",,"7","2200",,,,,,,,,,,"01904321","Washoe","348 HILLCREST DR","","RENO","NV","89509","-119.811121","39.504510","385","0.2750000","981","3","2.000","1942","2017-12-28","350000","55719"
"91365","0",,"28","1450",,,,,,,,,,,"360750002","Utah","237 CHERRY HILL DR","","PLEASANT GROVE","UT","84062","-111.720100","40.360927","369","0.1800046","1680","8","4.000","1973","2016-03-23","0","205150"
"91662","0",,"6","1550",,,,,,,,,,,"17718121005","Clark","8271 PEARL DIVER CT","","LAS VEGAS","NV","89139","-115.200125","36.039499","385","0.1100092","1652","3","2.000","2010","2010-04-19","184380","83679"
"91785","0",,"6","1100",,,,,,,,,,,"17603510100","Clark","7255 W SUNSET RD","APT 2048","LAS VEGAS","NV","89113","-115.250685","36.069051","366","0.0000000","937","2","2.000","2001","2015-12-24","96250","36715"
"92154","0",,"4","1700",,,,,,,,,,,"17819414018","Clark","274 LIBERTY POINT CT","","HENDERSON","NV","89052","-115.094050","36.016396","386","0.0500000","1604","3","3.000","2003","2018-04-02","257000","73039"
"92186","0",,"4","1450",,,,,,,,,,,"21173060470000","Salt Lake","3939 W 5820 S","","TAYLORSVILLE","UT","84129","-111.985006","40.645275","385","0.1199954","1223","4","2.000","1985","2013-08-16","0","133540"
"92287","0",,"28","1225",,,,,,,,,,,"03106013","Washoe","1520 STEVEN CT","","SPARKS","NV","89431","-119.762526","39.543419","366","0.0010101","1111","2","2.000","1979","2004-07-16","128500","24276"
"92699","0",,"27","1550",,,,,,,,,,,"16216810260","Clark","220 E FLAMINGO RD","UNIT 420","LAS VEGAS","NV","89169","-115.163306","36.115691","366","0.0000000","692","1","1.000","1992","2009-05-11","0","37439"
"92711","0",,"6","1525",,,,,,,,,,,"01039126","Carson City","1470 TROLLEY WAY","","CARSON CITY","NV","89701","-119.747371","39.153370","385","0.1600092","1207","3","1.750","1984","2009-12-01","0","45077"
"93098","0",,"9","1000",,,,,,,,,,,"13816120110","Clark","3151 SOARING GULLS DR","UNIT 1114","LAS VEGAS","NV","89128","-115.277120","36.216784","366","0.0000000","1109","3","2.000","1989","2017-11-08","194000","30494"
"93099","0",,"2","1050",,,,,,,,,,,"13816120243","Clark","3151 SOARING GULLS DR","UNIT 1047","LAS VEGAS","NV","89128","-115.276830","36.217692","366","0.0000000","1074","2","2.000","1989","2017-11-08","194000","29970"
"93841","0",,"7","1850",,,,,,,,,,,"16220714149","Clark","3726 LAS VEGAS BLVD S","","LAS VEGAS","NV","89158","-115.174697","36.107416","366","0.0000000","825","1","1.000","2007","2014-01-31","350000","142111"
"93873","1","-100","34","1795","38","-100",,,,,,,,,"17620418009","Clark","9591 BOUNCING BALL ST","","LAS VEGAS","NV","89178","-115.289720","36.014121","385","0.0800046","2583","4","3.000","2007","2012-10-25","163450","101082"
"94000","0",,"14","1620",,,,,,,,,,,"0269954","Washington","3125 CRESTVIEW DR","","SANTA CLARA","UT","84765","-113.656190","37.137614","385","0.2699954","1660","3","2.000","1981","2019-08-09","0","132000"
"94997","2","-155","34","1150","21","-75","43","-80",,,,,,,"12520215102","Clark","6955 N DURANGO DR","UNIT 2038","LAS VEGAS","NV","89149","-115.290286","36.287867","366","0.0000000","930","2","2.000","2004","2019-02-14","129500","39553"
"95177","0",,"14","1325",,,,,,,,,,,"112105515044","Douglas","58 CONNER WAY","","GARDNERVILLE","NV","89410","-119.641773","38.851007","385","0.2500000","1426","0","0.000","2006","2010-11-03","0","32794"
"95255","0",,"2","1150",,,,,,,,,,,"17804711004","Clark","548 CHELSEA DR","","HENDERSON","NV","89014","-115.053782","36.061619","386","0.0800046","1203","3","2.000","1979","2018-03-28","175000","30653"
"95638","0",,"22","1395",,,,,,,,,,,"13822411002","Clark","1805 KLAMATH FALLS WAY","","LAS VEGAS","NV","89128","-115.254634","36.192184","385","0.1000000","1610","3","3.000","1993","2005-05-31","286500","58673"
"96131","1","-51","37","1350","52","-51",,,,,,,,,"13808315064","Clark","3431 WHITE MISSION DR","","LAS VEGAS","NV","89129","-115.291391","36.223002","385","0.0600092","1281","2","3.000","1993","2010-10-01","96030","49194"
"96319","0",,"16","3500",,,,,,,,,,,"03829122","Washoe","115 RIVERDALE CIR","","VERDI","NV","89439","-119.995782","39.526531","385","1.4744031","2886","4","3.000","1989","2018-01-19","790000","179324"
"96378","0",,"1","1500",,,,,,,,,,,"22184780380000","Salt Lake","700 E 5900 S","","MURRAY","UT","84107","-111.872712","40.641456","385","0.1699954","1387","3","1.000","1932","2018-11-21","0","130075"
"96828","0",,"5","1100",,,,,,,,,,,"14033414085","Clark","193 BETTY LN","","LAS VEGAS","NV","89110","-115.058024","36.162562","385","0.1500000","1782","3","2.000","2006","1993-03-22","9500","45371"
"97051","0",,"11","1570",,,,,,,,,,,"0596729","Washington","1630 E 2450 S","UNIT 69","SAINT GEORGE","UT","84790","-113.552742","37.066515","366","0.1000000","1914","3","2.000","2004","2011-10-10","0","161095"
"97249","1","-50","65","1725","53","-50",,,,,,,,,"14067202","Washoe","10701 GRAYSLAKE DR","","RENO","NV","89521","-119.729305","39.414829","385","0.1607208","1430","2","2.000","2005","2009-11-25","216500","78053"
"97498","0",,"65","1700",,,,,,,,,,,"0788990","Washington","1429 N 2200 W","# 2200","ST GEORGE","UT","84770","-113.630585","37.132657","385","0.1399908","1092","3","2.000","2008","2009-02-13","0","221100"
"97662","0",,"5","1300",,,,,,,,,,,"14331530030000","Salt Lake","3731 S 8000 W","","MAGNA","UT","84044","-112.081968","40.690927","385","0.1699954","1234","3","1.000","2000",,"0","134860"
"97709","5","-200","38","1495","3","5","5","-25","8","-30","8","-100","12","-50","070450019","Weber","823 HOLROYD DR","","OGDEN","UT","84403","-111.959841","41.168004","385","0.2199954","1296","6","2.500","1961","2011-10-20","0","133650"
"98526","0",,"6","1950",,,,,,,,,,,"12427510009","Clark","136 DELIGHTED AVE","","NORTH LAS VEGAS","NV","89031","-115.142494","36.274280","385","0.1500000","3150","4","4.000","2008","2016-09-22","265000","102212"
"98649","1","-70","31","1095","17","-70",,,,,,,,,"17723817185","Clark","2300 E SILVERADO RANCH BLVD","UNIT 2157","LAS VEGAS","NV","89183","-115.120480","36.014431","366","0.0000000","960","2","2.000","1997","2005-05-10","157990","37844"
"98654","2","-100","53","1595","46","-45","9","-55",,,,,,,"17615111062","Clark","7609 PALLON AVE","","LAS VEGAS","NV","89113","-115.257348","36.039813","385","0.0500000","1650","3","2.000","2007","2010-08-27","120000","76917"
"99709","0",,"7","1495",,,,,,,,,,,"17619510169","Clark","9485 ALMA RIDGE AVE","","LAS VEGAS","NV","89178","-115.299953","36.023158","385","0.0800046","2145","3","3.000","2012","2013-01-02","170845","89395"
"99712","2","-195","12","1695","22","-100","17","-95",,,,,,,"17732212066","Clark","3751 PERUGIA CT","","LAS VEGAS","NV","89141","-115.189270","35.992128","385","0.0699954","1748","3","3.000","2003","2017-01-11","0","75461"
"99923","0",,"63","1100",,,,,,,,,,,"17721220275","Clark","50 E SERENE AVE","UNIT 208","LAS VEGAS","NV","89123","-115.169441","36.023121","366","0.0000000","823","1","1.000","2006","2016-11-02","117000","53855"
"100063","0",,"5","2850",,,,,,,,,,,"13816715024","Clark","7628 DESERT LARGO AVE","","LAS VEGAS","NV","89128","-115.263001","36.208164","385","0.1600092","3157","4","3.000","1990","2018-04-23","460000","106372"
"100174","0",,"2","1100",,,,,,,,,,,"0819757","Washington","3419 S RIVER RD","UNIT 15","SAINT GEORGE","UT","84790","-113.554648","37.050572","366","0.0199954","1460","3","2.500","2006","2016-09-26","0","94820"
"100488","0",,"14","1000",,,,,,,,,,,"00109610032","Clark","407 MESA BLVD","UNIT 202","MESQUITE","NV","89027","-114.061205","36.818087","366","0.0573921","1192","2","2.000","1993","2019-04-15","106500","33522"
"100678","0",,"4","1950",,,,,,,,,,,"16132111010","Clark","5731 KEVIN WINTERS ST","","LAS VEGAS","NV","89120","-115.078891","36.084894","385","0.1399908","2245","3","3.000","2014","2019-06-10","311000","99562"
"101027","3","-400","51","1350","3","-100","28","-100","7","-200",,,,,"17720813163","Clark","2615 W GARY AVE","UNIT 2081","LAS VEGAS","NV","89123","-115.176257","36.014791","366","0.0000000","711","1","1.000","1999","2006-07-07","226500","34860"
"101116","0",,"2","1350",,,,,,,,,,,"17620613088","Clark","9140 GIARDINO VILLA ST","","LAS VEGAS","NV","89148","-115.285025","36.021891","385","0.0600092","1650","3","3.000","2008","2008-05-02","205059","76744"
"101786","0",,"38","4200",,,,,,,,,,,"17604713102","Clark","8068 HAYWOOD ESTATE AVE","","LAS VEGAS","NV","89113","-115.267411","36.059776","385","0.0600092","2299","3","3.000","2018","2018-08-30","469388","24650"
"101798","1","50","10","1450","3","50",,,,,,,,,"13803514048","Clark","7012 JUNCTION VILLAGE AVE","","LAS VEGAS","NV","89129","-115.248223","36.245255","385","0.1000000","1558","4","2.000","1995","2019-02-01","271078","59029"
"101873","0",,"15","900",,,,,,,,,,,"1-23-27","Sevier","75 S 200 E","","RICHFIELD","UT","84701","-112.080984","38.767023","385","0.1500000","792","0","2.000","1951",,"0","44880"
"101950","0",,"10","2050",,,,,,,,,,,"17821418020","Clark","1632 YELLOW TULIP PL","","HENDERSON","NV","89012","-115.057039","36.014358","385","0.0899908","2533","4","3.000","2007","2006-11-29","424990","112463"
"102076","0",,"1","1375",,,,,,,,,,,"17620510021","Clark","8984 SALVATORE ST","","LAS VEGAS","NV","89148","-115.285431","36.024674","385","0.0699954","1778","3","3.000","2006","2008-08-25","0","81505"
"102143","3","-155","15","1450","7","-55","1","-70","7","-30",,,,,"16110510008","Clark","2523 JOSEPH CANYON DR","","LAS VEGAS","NV","89142","-115.035649","36.143877","385","0.1100092","1578","3","3.000","1999","2013-03-13","120000","63811"
"102978","1","-100","26","1595","25","-100",,,,,,,,,"17606610011","Clark","6772 ALPINE MOUNTAIN CT","","LAS VEGAS","NV","89148","-115.302953","36.065174","385","0.0899908","1208","3","2.000","2002","2016-08-22","195000","66172"
"103049","2","170","7","1225","6","200","41","-30",,,,,,,"13713410036","Clark","2517 BANORA POINT DR","","LAS VEGAS","NV","89134","-115.331776","36.206184","386","0.0600092","1021","2","2.000","1995","2005-01-19","0","50411"
"103693","1","-50","16","1550","22","-50",,,,,,,,,"13808810136","Clark","3354 CHELTENHAM ST","","LAS VEGAS","NV","89129","-115.287056","36.221372","385","0.0399908","1400","3","3.000","1996","2019-08-29","245000","55979"
"103882","0",,"8","1060",,,,,,,,,,,"369920021","Utah","1052 CANYON MEADOW DR","APT 5","PROVO","UT","84606","-111.629121","40.220003","366","0.0250000","1058","2","2.000","2003","2007-09-25","0","105710"
"103926","0",,"5","1250",,,,,,,,,,,"12534810118","Clark","4810 BLACK BEAR RD","UNIT 104","LAS VEGAS","NV","89149","-115.249677","36.248814","366","0.0597107","1378","2","2.000","1995","2005-12-15","225000","45459"
"104400","0",,"14","1250",,,,,,,,,,,"13724817127","Clark","10245 KING HENRY AVE","UNIT 103","LAS VEGAS","NV","89144","-115.320763","36.191723","366","0.0000000","1265","3","2.000","1998","2016-05-11","154000","49449"
"104570","0",,"3","1075",,,,,,,,,,,"12534810137","Clark","7201 INDIAN CREEK LN","UNIT 104","LAS VEGAS","NV","89149","-115.249397","36.248264","366","0.0597107","1022","1","1.000","1995","2017-07-31","122000","36582"
"104699","2","-100","37","1750","15","-55","18","-45",,,,,,,"16291030440000","Salt Lake","766 E 2825 S","","SALT LAKE CITY","UT","84106","-111.869046","40.709573","385","0.1199954","768","3","2.000","1942","2015-03-30","0","141845"
"104870","0",,"8","1650",,,,,,,,,,,"16133712049","Clark","1458 HOMESTEAD CT","","HENDERSON","NV","89014","-115.051086","36.076947","385","0.0899908","1829","4","3.000","1991","2012-10-09","165900","72342"
"104985","1","-55","9","1350","24","-55",,,,,,,,,"02356231","Washoe","3073 CASHILL BLVD","","RENO","NV","89509","-119.836787","39.483240","366","0.0010101","776","1","1.000","1972","2017-02-14","145000","19220"
"105662","0",,"1","1300",,,,,,,,,,,"17618516105","Clark","553 BRINKBURN POINT AVE","","LAS VEGAS","NV","89178","-115.300821","36.039840","385","0.0500000","1484","2","2.000","2007","2007-09-07","218483","68503"
"106119","0",,"3","1650",,,,,,,,,,,"00109203","Washoe","3420 BRYAN ST","","RENO","NV","89503","-119.857456","39.541014","385","0.1506657","1237","3","2.000","1966","2008-05-30","228000","33645"
"106127","0",,"3","1350",,,,,,,,,,,"12534218040","Clark","5237 CROOKED MOUNTAIN CT","","LAS VEGAS","NV","89149","-115.252214","36.256646","385","0.0899908","1350","2","2.000","1989","2012-05-31","102000","58714"
"106162","0",,"13","1750",,,,,,,,,,,"21141010110000","Salt Lake","1269 W BRISTER DR","","MURRAY","UT","84123","-111.928681","40.651411","385","0.1500000","1115","3","2.000","1986","2008-04-18","0","167035"
"106326","0",,"1","1200",,,,,,,,,,,"00808606","Washoe","1135 ARNOLD DR","","RENO","NV","89512","-119.796412","39.540882","369","0.1359963","1666","4","2.000","1963","2004-06-10","192500","38272"
"106393","0",,"8","1675",,,,,,,,,,,"33052530110000","Salt Lake","13616 S PYRENEES AVE","","RIVERTON","UT","84065","-111.972839","40.503882","377","0.0199954","1631","4","4.000","2007","2017-06-30","0","152625"
"106445","0",,"19","2300",,,,,,,,,,,"13821115022","Clark","8208 TIVOLI COVE DR","","LAS VEGAS","NV","89128","-115.271298","36.202106","385","0.1500000","3490","5","3.000","1990","2011-10-31","200000","100449"
"106721","0",,"1","1250",,,,,,,,,,,"16322217017","Clark","4439 HAWTHORNE WAY","","LAS VEGAS","NV","89147","-115.253190","36.108496","385","0.0899908","932","2","1.000","1983","2010-07-23","65100","34350"
"106736","0",,"22","1600",,,,,,,,,,,"456020043","Utah","205 W 380 S","","AMERICAN FORK","UT","84003","-111.804229","40.368815","397","0.1401056","0","0","0.000",,"2019-06-25","0","107100"
"106954","0",,"10","1910",,,,,,,,,,,"28204540030000","Salt Lake","11675 S EAGLE BEND RD","","SANDY","UT","84094","-111.861855","40.539217","385","0.1899908","1300","1","3.000","1987","2013-04-03","0","172370"
"107270","0",,"2","1450",,,,,,,,,,,"12420810084","Clark","2412 COCKATOO DR","","NORTH LAS VEGAS","NV","89084","-115.175567","36.278122","385","0.0899908","1668","3","3.000","2005","2011-05-06","99000","78291"
"107273","0",,"8","2100",,,,,,,,,,,"17617112059","Clark","69 TALL RUFF DR","","LAS VEGAS","NV","89148","-115.289036","36.038046","385","0.1000000","2781","4","4.000","2005","2007-06-29","526180","151179"
"107628","0",,"5","1400",,,,,,,,,,,"12507814045","Clark","8132 CASPIAN MOON DR","","LAS VEGAS","NV","89166","-115.305039","36.309276","385","0.0800046","1854","3","3.000","2004","2004-06-30","219715","81754"
"107868","0",,"15","1395",,,,,,,,,,,"16312616019","Clark","5070 TARA AVE","UNIT 101","LAS VEGAS","NV","89146","-115.210784","36.139215","366","0.1092975","1943","3","2.000","1994","2001-01-17","135000","62133"
"107907","0",,"8","1150",,,,,,,,,,,"17830314044","Clark","700 CARNEGIE ST","APT 2714","HENDERSON","NV","89052","-115.093435","36.003724","366","0.0000230","1198","3","2.000","2001","2013-05-22","120000","47872"
"108013","0",,"21","1700",,,,,,,,,,,"17620311054","Clark","9217 PLACER BULLION AVE","","LAS VEGAS","NV","89178","-115.293804","36.016858","385","0.0800046","1935","4","3.000","2005","2006-04-06","421656","86214"
"108739","0",,"21","2200",,,,,,,,,,,"12510719016","Clark","8353 MYERLEE CT","","LAS VEGAS","NV","89131","-115.247463","36.311968","385","0.2699954","3049","4","3.000","2006","2008-09-15","353900","155732"
"109050","0",,"31","1050",,,,,,,,,,,"543150065","Utah","1004 N 1090 W","APT 201","OREM","UT","84057","-111.722468","40.315848","366","0.0181129","790","2","1.000","2015","2018-08-21","0","89650"
"109106","1","-50","16","1700","35","-50",,,,,,,,,"16032614147","Clark","1037 VIA PANFILO AVE","","HENDERSON","NV","89011","-114.962098","36.079991","386","0.0300046","2238","3","4.000","2007","2018-02-21","245000","92232"
"109107","0",,"1","9500",,,,,,,,,,,"16411415034","Clark","11635 EVERGREEN CREEK LN","","LAS VEGAS","NV","89135","-115.347371","36.132501","385","0.3000000","4812","4","5.000","2004","2017-03-22","1919800","386380"
"109413","1","50","23","1500","2","50",,,,,,,,,"1606900212","Tooele","434 BRIGHAM RD","","STANSBURY PARK","UT","84074","-112.294313","40.653548","366","0.0500000","1577","0","0.000","2008","2017-09-19","0","108418"
"109649","0",,"6","1000",,,,,,,,,,,"17815315178","Clark","45 MALEENA MESA ST","APT 1212","HENDERSON","NV","89074","-115.041388","36.031403","366","0.0000000","1024","2","2.000","2003","2006-08-17","247990","35057"
"110107","1","-45","15","1695","25","-45",,,,,,,,,"13736214046","Clark","10636 MOON FLOWER ARBOR PL","","LAS VEGAS","NV","89144","-115.328669","36.169502","385","0.1000000","1707","4","3.000","2000","2013-09-05","215000","75055"
"110221","1","-50","9","1350","8","-50",,,,,,,,,"13833410017","Clark","8301 BOSECK DR","UNIT 211","LAS VEGAS","NV","89145","-115.274285","36.161874","366","0.0812672","1229","2","2.000","1993","2018-02-22","142500","45563"
"110338","0",,"38","2199",,,,,,,,,,,"13934613102","Clark","150 LAS VEGAS BLVD N","UNIT 1220","LAS VEGAS","NV","89101","-115.139540","36.169882","366","0.0000000","847","1","2.000","2007","2016-08-25","232900","84810"
"110351","1","1275","21","425","230","1275",,,,,,,,,"0403272","Washington","275 S VALLEY VIEW DR","APT 65","ST GEORGE","UT","84770","-113.612056","37.103581","366","0.0500000","1095","2","2.000","1992","2013-05-03","0","195300"
"111253","0",,"9","1550",,,,,,,,,,,"01155710","Washoe","255 N SIERRA ST","UNIT 1509","RENO","NV","89501","-119.815123","39.527644","366","0.0222222","967","1","1.000","1978","2012-09-07","127000","90659"
"111511","0",,"5","1725",,,,,,,,,,,"19019612004","Clark","2640 COURGETTE WAY","","HENDERSON","NV","89044","-115.089043","35.933460","385","0.1000000","2356","3","3.000","2012","2014-07-18","265000","112837"
"111536","1","-25","65","900","70","-25",,,,,,,,,"16211310065","Clark","1405 VEGAS VALLEY DR","APT 113","LAS VEGAS","NV","89169","-115.133989","36.136198","366","0.0223829","863","2","1.000","1971","2018-02-14","61000","13526"
"111597","0",,"36","850",,,,,,,,,,,"13827418248","Clark","7100 PIRATES COVE RD","APT 1074","LAS VEGAS","NV","89145","-115.252780","36.177264","366","0.0367309","711","1","1.000","1992","1992-04-08","51950","21070"
"111648","0",,"2","1345",,,,,,,,,,,"12512710017","Clark","8225 CALICO WIND ST","","LAS VEGAS","NV","89131","-115.208098","36.310775","385","0.1100092","1798","3","2.000","2004","2010-12-23","116500","83013"
"111664","0",,"9","1700",,,,,,,,,,,"52413208","Washoe","7839 MORRO AVE","","SPARKS","NV","89436","-119.689337","39.629659","385","0.2760101","1406","3","2.000","1999","2017-06-28","310000","67560"
"111990","0",,"28","0",,,,,,,,,,,"16317110296","Clark","9325 W DESERT INN RD","APT 234","LAS VEGAS","NV","89117","-115.295223","36.128492","366","0.0000000","892","2","2.000","1991","2019-10-09","147000","32994"
